[
  {
    "code": "AEI",
    "name": "Algeciras Heliport",
    "municipality": "Algeciras",
    "country": "ES",
    "type": "heliport",
    "lat": 36.12882,
    "lon": -5.441079
  },
  {
    "code": "CH-0001",
    "name": "San Vittore Heliport",
    "municipality": "San Vittore",
    "country": "CH",
    "type": "heliport",
    "lat": 46.232196,
    "lon": 9.089497
  },
  {
    "code": "CH-0002",
    "name": "Croix de Coeur Altiport",
    "municipality": "Riddes",
    "country": "CH",
    "type": "small_airport",
    "lat": 46.123348,
    "lon": 7.234131
  },
  {
    "code": "CH-0003",
    "name": "Altisurface du Glacier de Prasfleuri",
    "municipality": "",
    "country": "CH",
    "type": "small_airport",
    "lat": 46.064289,
    "lon": 7.354317
  },
  {
    "code": "CH-0004",
    "name": "Altiport du Glacier de Tsanfleuron",
    "municipality": "Savièse",
    "country": "CH",
    "type": "small_airport",
    "lat": 46.320653,
    "lon": 7.23288
  },
  {
    "code": "CH-0005",
    "name": "Helipad Klinik Gut (St. Moritz)",
    "municipality": "Sankt Moritz",
    "country": "CH",
    "type": "heliport",
    "lat": 46.4965,
    "lon": 9.83847
  },
  {
    "code": "CH-0006",
    "name": "Helipad Station Corvatsch",
    "municipality": "Sanedan",
    "country": "CH",
    "type": "heliport",
    "lat": 46.417572,
    "lon": 9.820629
  },
  {
    "code": "CH-0007",
    "name": "Ulrichen Air Base",
    "municipality": "Obergoms",
    "country": "CH",
    "type": "closed",
    "lat": 46.50193,
    "lon": 8.299415
  },
  {
    "code": "CH-0008",
    "name": "REGA basis Erstfeld",
    "municipality": "",
    "country": "CH",
    "type": "heliport",
    "lat": 46.83416,
    "lon": 8.63832
  },
  {
    "code": "CH-0009",
    "name": "Walenstadt Hospital Heliport",
    "municipality": "Walenstadt",
    "country": "CH",
    "type": "heliport",
    "lat": 47.12088,
    "lon": 9.31007
  },
  {
    "code": "CH-0010",
    "name": "Biäsche Heliport",
    "municipality": "Weesen",
    "country": "CH",
    "type": "heliport",
    "lat": 47.128198,
    "lon": 9.095089
  },
  {
    "code": "CH-0011",
    "name": "Zürich Triemli City Hospital Heliport",
    "municipality": "Zürich",
    "country": "CH",
    "type": "heliport",
    "lat": 47.366516,
    "lon": 8.497469
  },
  {
    "code": "CH-0012",
    "name": "Limmattal Hospital Heliport",
    "municipality": "Schlieren",
    "country": "CH",
    "type": "heliport",
    "lat": 47.393567,
    "lon": 8.431755
  },
  {
    "code": "CH-0013",
    "name": "Zürich Waid City Hospital Heliport",
    "municipality": "Zürich",
    "country": "CH",
    "type": "heliport",
    "lat": 47.398104,
    "lon": 8.521438
  },
  {
    "code": "CH-0014",
    "name": "Zurich Children's Hospital Heliport",
    "municipality": "Zürich",
    "country": "CH",
    "type": "heliport",
    "lat": 47.372022,
    "lon": 8.55716
  },
  {
    "code": "CH-0015",
    "name": "University Hospital of Zurich Heliport",
    "municipality": "Zürich",
    "country": "CH",
    "type": "heliport",
    "lat": 47.376917,
    "lon": 8.551108
  },
  {
    "code": "CH-0016",
    "name": "Bülach Hospital Heliport",
    "municipality": "Bülach",
    "country": "CH",
    "type": "heliport",
    "lat": 47.521867,
    "lon": 8.533201
  },
  {
    "code": "CH-0017",
    "name": "Grabs Hospital Heliport",
    "municipality": "Grabs",
    "country": "CH",
    "type": "heliport",
    "lat": 47.17422,
    "lon": 9.4488
  },
  {
    "code": "CH-0018",
    "name": "Grisons Cantonal Hospital Heliport",
    "municipality": "Chur",
    "country": "CH",
    "type": "heliport",
    "lat": 46.864183,
    "lon": 9.538922
  },
  {
    "code": "CH-0019",
    "name": "Chur Rossboden Heliport",
    "municipality": "Chur",
    "country": "CH",
    "type": "closed",
    "lat": 46.84945,
    "lon": 9.50284
  },
  {
    "code": "CH-0020",
    "name": "Fideris Emergency Heliport",
    "municipality": "Jenaz",
    "country": "CH",
    "type": "heliport",
    "lat": 46.92391,
    "lon": 9.72708
  },
  {
    "code": "CH-0021",
    "name": "Davos Hospital Heliport",
    "municipality": "Davos",
    "country": "CH",
    "type": "heliport",
    "lat": 46.78764,
    "lon": 9.81413
  },
  {
    "code": "CH-0022",
    "name": "Tiefenau Hospital Heliport",
    "municipality": "Bern",
    "country": "CH",
    "type": "heliport",
    "lat": 46.97611,
    "lon": 7.45394
  },
  {
    "code": "CH-0023",
    "name": "Basel-Landschaft Cantonal Hospital Bruderholz Heliport",
    "municipality": "Bruderholz",
    "country": "CH",
    "type": "heliport",
    "lat": 47.52771,
    "lon": 7.58143
  },
  {
    "code": "CH-0024",
    "name": "Messe Basel Emergency Heliport",
    "municipality": "Basel",
    "country": "CH",
    "type": "heliport",
    "lat": 47.56359,
    "lon": 7.60154
  },
  {
    "code": "CH-0025",
    "name": "Herisau Hospital Heliport",
    "municipality": "Herisau",
    "country": "CH",
    "type": "heliport",
    "lat": 47.38765,
    "lon": 9.28314
  },
  {
    "code": "CH-0026",
    "name": "Appenzell Cantonal Health Center Heliport",
    "municipality": "Appenzell",
    "country": "CH",
    "type": "heliport",
    "lat": 47.33454,
    "lon": 9.41593
  },
  {
    "code": "CH-0027",
    "name": "Sankt Gallen Cantonal Hospital Heliport",
    "municipality": "Sankt Gallen",
    "country": "CH",
    "type": "heliport",
    "lat": 47.43077,
    "lon": 9.38689
  },
  {
    "code": "CH-0028",
    "name": "See-Spital Horgen Heliport",
    "municipality": "Horgen",
    "country": "CH",
    "type": "heliport",
    "lat": 47.26296,
    "lon": 8.59025
  },
  {
    "code": "CH-0029",
    "name": "Uster Hospital Heliport",
    "municipality": "Uster",
    "country": "CH",
    "type": "heliport",
    "lat": 47.3535,
    "lon": 8.72424
  },
  {
    "code": "CH-0030",
    "name": "AMEOS Hospital Einsiedeln Heliport",
    "municipality": "Einsiedeln",
    "country": "CH",
    "type": "heliport",
    "lat": 47.13094,
    "lon": 8.740359
  },
  {
    "code": "CH-0031",
    "name": "Zug Cantonal Hospital Heliport",
    "municipality": "Baar",
    "country": "CH",
    "type": "heliport",
    "lat": 47.1941,
    "lon": 8.51831
  },
  {
    "code": "CH-0032",
    "name": "Baden Cantonal Hospital Heliport",
    "municipality": "Baden",
    "country": "CH",
    "type": "heliport",
    "lat": 47.45567,
    "lon": 8.27856
  },
  {
    "code": "CH-0033",
    "name": "Winterthur Cantonal Hospital Heliport",
    "municipality": "Winterthur",
    "country": "CH",
    "type": "heliport",
    "lat": 47.50733,
    "lon": 8.72845
  },
  {
    "code": "CH-0034",
    "name": "Grosser Mythen Helipad",
    "municipality": "Schwyz",
    "country": "CH",
    "type": "heliport",
    "lat": 47.02987,
    "lon": 8.68912
  },
  {
    "code": "CH-0035",
    "name": "Jura Hospital Delémont Heliport",
    "municipality": "Delémont",
    "country": "CH",
    "type": "heliport",
    "lat": 47.36894,
    "lon": 7.34014
  },
  {
    "code": "CH-0036",
    "name": "Hagenbuch Airport",
    "municipality": "Hagenbuch",
    "country": "CH",
    "type": "closed",
    "lat": 47.51852,
    "lon": 8.87139
  },
  {
    "code": "CH-0037",
    "name": "Münsterlingen Hospital Heliport",
    "municipality": "Münsterlingen",
    "country": "CH",
    "type": "heliport",
    "lat": 47.63033,
    "lon": 9.23818
  },
  {
    "code": "CH-0038",
    "name": "Jura Hospital Porrentruy Heliport",
    "municipality": "Porrentruy",
    "country": "CH",
    "type": "heliport",
    "lat": 47.4191,
    "lon": 7.05694
  },
  {
    "code": "CH-0039",
    "name": "Schaffhausen Cantonal Hospital Heliport",
    "municipality": "Schaffhausen",
    "country": "CH",
    "type": "heliport",
    "lat": 47.71184,
    "lon": 8.63542
  },
  {
    "code": "CH-0040",
    "name": "Frutigen Airfield",
    "municipality": "Frutigen",
    "country": "CH",
    "type": "closed",
    "lat": 46.58857,
    "lon": 7.65564
  },
  {
    "code": "CH-0041",
    "name": "Basel-Sternenfeld Airport",
    "municipality": "Birsfelden",
    "country": "CH",
    "type": "closed",
    "lat": 47.55649,
    "lon": 7.62869
  },
  {
    "code": "CH-0042",
    "name": "Interlaken Air Base",
    "municipality": "Interlaken",
    "country": "CH",
    "type": "closed",
    "lat": 46.676601,
    "lon": 7.87908
  },
  {
    "code": "CH-0043",
    "name": "Turtmann Air Base",
    "municipality": "Turtmann",
    "country": "CH",
    "type": "closed",
    "lat": 46.304339,
    "lon": 7.712708
  },
  {
    "code": "CH-0044",
    "name": "Hasenstrick Airfield",
    "municipality": "Dürnten",
    "country": "CH",
    "type": "closed",
    "lat": 47.279999,
    "lon": 8.88194
  },
  {
    "code": "CH-0045",
    "name": "Porrentruy Airfield",
    "municipality": "Porrentruy",
    "country": "CH",
    "type": "closed",
    "lat": 47.410599,
    "lon": 7.05167
  },
  {
    "code": "CH-0046",
    "name": "San Vittore Airport",
    "municipality": "San Vittore",
    "country": "CH",
    "type": "closed",
    "lat": 46.2342,
    "lon": 9.09417
  },
  {
    "code": "CH-0047",
    "name": "Ascona Airport",
    "municipality": "Ascona",
    "country": "CH",
    "type": "closed",
    "lat": 46.157799,
    "lon": 8.78194
  },
  {
    "code": "CH-0048",
    "name": "Würenlingen Heliport",
    "municipality": "Würenlingen",
    "country": "CH",
    "type": "closed",
    "lat": 47.5162,
    "lon": 8.2379
  },
  {
    "code": "D030",
    "name": "Balingen Healthcare Helipad",
    "municipality": "Balingen",
    "country": "DE",
    "type": "heliport",
    "lat": 48.287047,
    "lon": 8.863409
  },
  {
    "code": "D072",
    "name": "Burladingen Helipad (Fa. Trigema)",
    "municipality": "Burladingen",
    "country": "DE",
    "type": "heliport",
    "lat": 48.288022,
    "lon": 9.106573
  },
  {
    "code": "D125",
    "name": "Esslingen Klinikum Rooftop Helipad",
    "municipality": "Esslingen",
    "country": "DE",
    "type": "heliport",
    "lat": 48.7375,
    "lon": 9.326944
  },
  {
    "code": "D154",
    "name": "Gerlingen Fa. Bosch Helipad",
    "municipality": "Gerlingen",
    "country": "DE",
    "type": "heliport",
    "lat": 48.785525,
    "lon": 9.062897
  },
  {
    "code": "D304",
    "name": "Nagold Hospital Rooftop Helipad",
    "municipality": "Nagold",
    "country": "DE",
    "type": "heliport",
    "lat": 48.541643,
    "lon": 8.722794
  },
  {
    "code": "D346",
    "name": "Ostfildern-Ruit Medius Hospital Heliport",
    "municipality": "Ostfildern",
    "country": "DE",
    "type": "closed",
    "lat": 48.741161,
    "lon": 9.256443
  },
  {
    "code": "D371",
    "name": "Reutlingen Klinikum Rooftop Helipad",
    "municipality": "Reutlingen",
    "country": "DE",
    "type": "heliport",
    "lat": 48.483984,
    "lon": 9.218465
  },
  {
    "code": "D372",
    "name": "Reutlingen Betzingen Helipad",
    "municipality": "Reutlingen",
    "country": "DE",
    "type": "heliport",
    "lat": 48.491533,
    "lon": 9.155087
  },
  {
    "code": "D415",
    "name": "Sindelfingen Fa. Daimler Helipad",
    "municipality": "Sindelfingen",
    "country": "DE",
    "type": "heliport",
    "lat": 48.692859,
    "lon": 8.985761
  },
  {
    "code": "D429",
    "name": "Robert Bosch Hospital Helistop",
    "municipality": "Bad Cannstadt",
    "country": "DE",
    "type": "heliport",
    "lat": 48.813877,
    "lon": 9.185474
  },
  {
    "code": "D430",
    "name": "Stuttgart Katharinen Hospital Helistop",
    "municipality": "Stuttgart",
    "country": "DE",
    "type": "heliport",
    "lat": 48.783827,
    "lon": 9.173173
  },
  {
    "code": "D431",
    "name": "Stuttgart Marien Hospital Rooftop Helipad",
    "municipality": "Stuttgart",
    "country": "DE",
    "type": "heliport",
    "lat": 48.761079,
    "lon": 9.163863
  },
  {
    "code": "D447",
    "name": "Untertürkheim Fa. Daimler Rooftop Helipad",
    "municipality": "Untertürkheim",
    "country": "DE",
    "type": "heliport",
    "lat": 48.782163,
    "lon": 9.239661
  },
  {
    "code": "DE-0001",
    "name": "Klinikum am Plattenwald Helipad",
    "municipality": "Bad Friedrichshall",
    "country": "DE",
    "type": "heliport",
    "lat": 49.2128560011,
    "lon": 9.236728549
  },
  {
    "code": "DE-0002",
    "name": "Ahlhorn Highway Strip",
    "municipality": "Großenkneten",
    "country": "DE",
    "type": "closed",
    "lat": 52.929984,
    "lon": 8.173538
  },
  {
    "code": "DE-0003",
    "name": "August Euler Airfield",
    "municipality": "Griesheim",
    "country": "DE",
    "type": "small_airport",
    "lat": 49.853757,
    "lon": 8.586243
  },
  {
    "code": "DE-0004",
    "name": "Gransee Airfield",
    "municipality": "Gransee",
    "country": "DE",
    "type": "small_airport",
    "lat": 53.00628,
    "lon": 13.202177
  },
  {
    "code": "DE-0005",
    "name": "Warngau Airfield",
    "municipality": "Warngau",
    "country": "DE",
    "type": "small_airport",
    "lat": 47.82399,
    "lon": 11.70398
  },
  {
    "code": "DE-0006",
    "name": "Locktow Airfield",
    "municipality": "Planetal",
    "country": "DE",
    "type": "small_airport",
    "lat": 52.1165,
    "lon": 12.709562
  },
  {
    "code": "DE-0007",
    "name": "Wünsdorf Airfield",
    "municipality": "",
    "country": "DE",
    "type": "closed",
    "lat": 52.198001861572,
    "lon": 13.527000427246
  },
  {
    "code": "DE-0008",
    "name": "Steinstücken Helipad",
    "municipality": "Berlin",
    "country": "DE",
    "type": "closed",
    "lat": 52.3902015686,
    "lon": 13.128600120500002
  },
  {
    "code": "DE-0009",
    "name": "Sperenberg Air Base",
    "municipality": "Nuthe-Urstromtal",
    "country": "DE",
    "type": "closed",
    "lat": 52.136861,
    "lon": 13.305817
  },
  {
    "code": "DE-0010",
    "name": "Feldkirchen-Mitterharthausen Airfield",
    "municipality": "Feldkirchen",
    "country": "DE",
    "type": "closed",
    "lat": 48.82833,
    "lon": 12.562372
  },
  {
    "code": "DE-0011",
    "name": "Strausberg Helipad",
    "municipality": "Eggersdorf",
    "country": "DE",
    "type": "closed",
    "lat": 52.524898529052734,
    "lon": 13.8302001953125
  },
  {
    "code": "DE-0012",
    "name": "Schönwalde Airfield",
    "municipality": "Schönwalde",
    "country": "DE",
    "type": "closed",
    "lat": 52.617453,
    "lon": 13.15958
  },
  {
    "code": "DE-0013",
    "name": "Johannisthal Airfield",
    "municipality": "Berlin",
    "country": "DE",
    "type": "closed",
    "lat": 52.4379997253418,
    "lon": 13.524999618530273
  },
  {
    "code": "DE-0014",
    "name": "Rostock University Helipad",
    "municipality": "Rostock",
    "country": "DE",
    "type": "heliport",
    "lat": 54.08330154418945,
    "lon": 12.100500106811523
  },
  {
    "code": "DE-0015",
    "name": "Dresden Friedrichstadt Hospital Heliport",
    "municipality": "Dresden",
    "country": "DE",
    "type": "heliport",
    "lat": 51.058404,
    "lon": 13.716061
  },
  {
    "code": "DE-0016",
    "name": "Erlangen University Hospital Ebrardstraße Heliport",
    "municipality": "Erlangen",
    "country": "DE",
    "type": "heliport",
    "lat": 49.602023,
    "lon": 11.02244
  },
  {
    "code": "DE-0017",
    "name": "Kelley Barracks Helipad",
    "municipality": "Stuttgart",
    "country": "DE",
    "type": "closed",
    "lat": 48.721699,
    "lon": 9.1815
  },
  {
    "code": "DE-0018",
    "name": "Frankfurt am Main Accident Hospital Roof Helipad (CHX2)",
    "municipality": "Frankfurt am Main",
    "country": "DE",
    "type": "heliport",
    "lat": 50.145424,
    "lon": 8.710111
  },
  {
    "code": "DE-0019",
    "name": "Frankfurt am Main Accident Hospital Ground Helipad",
    "municipality": "Frankfurt am Main",
    "country": "DE",
    "type": "closed",
    "lat": 50.1441,
    "lon": 8.7096
  },
  {
    "code": "DE-0020",
    "name": "Höchst Industrial Park Helipad",
    "municipality": "Frankfurt am Main",
    "country": "DE",
    "type": "heliport",
    "lat": 50.089386,
    "lon": 8.538054
  },
  {
    "code": "DE-0021",
    "name": "Biblis Nuclear Power Plant Helipad",
    "municipality": "Biblis",
    "country": "DE",
    "type": "heliport",
    "lat": 49.70750045776367,
    "lon": 8.417499542236328
  },
  {
    "code": "DE-0022",
    "name": "Mainz ZDF-Complex Helipad",
    "municipality": "Mainz",
    "country": "DE",
    "type": "heliport",
    "lat": 49.96620178222656,
    "lon": 8.212699890136719
  },
  {
    "code": "DE-0023",
    "name": "Bernkastel-Kues Cusanus Hospital Heliport",
    "municipality": "Bernkastel-Kues",
    "country": "DE",
    "type": "heliport",
    "lat": 49.915699,
    "lon": 7.0623
  },
  {
    "code": "DE-0024",
    "name": "Remagen Rolandseck Helipad",
    "municipality": "Remagen",
    "country": "DE",
    "type": "heliport",
    "lat": 50.632082,
    "lon": 7.207655
  },
  {
    "code": "DE-0025",
    "name": "Osnabrück Hospital Helipad",
    "municipality": "Osnabrück",
    "country": "DE",
    "type": "heliport",
    "lat": 52.27790069580078,
    "lon": 8.004799842834473
  },
  {
    "code": "DE-0026",
    "name": "Meppen Ludmillenstift Hospital Helipad",
    "municipality": "Meppen",
    "country": "DE",
    "type": "heliport",
    "lat": 52.68949890136719,
    "lon": 7.294400215148926
  },
  {
    "code": "DE-0027",
    "name": "Grafenrheinfeld Nuclear Power Plant Heliport",
    "municipality": "Grafenrheinfeld",
    "country": "DE",
    "type": "heliport",
    "lat": 49.982235,
    "lon": 10.191398
  },
  {
    "code": "DE-0028",
    "name": "Wittstock Air Base",
    "municipality": "Wittstock",
    "country": "DE",
    "type": "closed",
    "lat": 53.201,
    "lon": 12.524
  },
  {
    "code": "DE-0029",
    "name": "Berlinchen Airfield",
    "municipality": "Berlinchen",
    "country": "DE",
    "type": "small_airport",
    "lat": 53.2251775192,
    "lon": 12.565526962299998
  },
  {
    "code": "DE-0030",
    "name": "Traunstein Hospital Helipad",
    "municipality": "Traunstein",
    "country": "DE",
    "type": "heliport",
    "lat": 47.874141,
    "lon": 12.631413
  },
  {
    "code": "DE-0031",
    "name": "Bad Reichenhall Hospital Helipad",
    "municipality": "Bad Reichenhal",
    "country": "DE",
    "type": "heliport",
    "lat": 47.7284922303,
    "lon": 12.8724843264
  },
  {
    "code": "DE-0032",
    "name": "Berchtesgaden Hospital Helipad",
    "municipality": "Berchtesgaden",
    "country": "DE",
    "type": "heliport",
    "lat": 47.6403452253,
    "lon": 13.006052970899999
  },
  {
    "code": "DE-0033",
    "name": "Freilassing Hospital Helipad",
    "municipality": "Freilassing",
    "country": "DE",
    "type": "heliport",
    "lat": 47.848497197499995,
    "lon": 12.979743182700002
  },
  {
    "code": "DE-0034",
    "name": "Trostberg Hospital Helipad",
    "municipality": "Trostberg",
    "country": "DE",
    "type": "heliport",
    "lat": 48.0291332578,
    "lon": 12.5431895256
  },
  {
    "code": "DE-0035",
    "name": "Helgoland Navy Helicopter Base",
    "municipality": "Heligoland",
    "country": "DE",
    "type": "heliport",
    "lat": 54.175106,
    "lon": 7.890018
  },
  {
    "code": "DE-0036",
    "name": "Grafenwöhr Medevac Helipad",
    "municipality": "Grafenwöhr",
    "country": "DE",
    "type": "heliport",
    "lat": 49.708056,
    "lon": 11.916111
  },
  {
    "code": "DE-0037",
    "name": "Vilseck Main Army Heliport",
    "municipality": "Vilseck",
    "country": "DE",
    "type": "heliport",
    "lat": 49.649444,
    "lon": 11.805833
  },
  {
    "code": "DE-0038",
    "name": "Utscheid Glider Field",
    "municipality": "Bitburg",
    "country": "DE",
    "type": "small_airport",
    "lat": 49.997778,
    "lon": 6.342778
  },
  {
    "code": "DE-0039",
    "name": "Aichach Airfield",
    "municipality": "Aichach",
    "country": "DE",
    "type": "small_airport",
    "lat": 48.471797,
    "lon": 11.134243
  },
  {
    "code": "DE-0040",
    "name": "Zierenberg Airfield",
    "municipality": "Zierenberg",
    "country": "DE",
    "type": "small_airport",
    "lat": 51.367,
    "lon": 9.336
  },
  {
    "code": "DE-0041",
    "name": "Zellhausen Sport Airfield",
    "municipality": "Zellhausen",
    "country": "DE",
    "type": "small_airport",
    "lat": 50.021637,
    "lon": 8.983212
  },
  {
    "code": "DE-0042",
    "name": "Weißenburg-Wülzburg Glider Field",
    "municipality": "Weißenburg in Bayern",
    "country": "DE",
    "type": "small_airport",
    "lat": 49.025666,
    "lon": 11.018422
  },
  {
    "code": "DE-0043",
    "name": "Wilsche Glider Field",
    "municipality": "Gifhorn",
    "country": "DE",
    "type": "small_airport",
    "lat": 52.524677,
    "lon": 10.462597
  },
  {
    "code": "DE-0044",
    "name": "Witzenhausen-Burgberg Glider Field",
    "municipality": "Witzenhausen",
    "country": "DE",
    "type": "small_airport",
    "lat": 51.349735,
    "lon": 9.824789
  },
  {
    "code": "DE-0045",
    "name": "Kleve-Wisseler Dünen Airfield",
    "municipality": "Kalkar",
    "country": "DE",
    "type": "closed",
    "lat": 51.769461,
    "lon": 6.299106
  },
  {
    "code": "DE-0046",
    "name": "Wildberg Glider Airfield",
    "municipality": "Wildberg",
    "country": "DE",
    "type": "small_airport",
    "lat": 48.637325,
    "lon": 8.733327
  },
  {
    "code": "DE-0047",
    "name": "Wächtersberg-Hub Glider Airfield",
    "municipality": "Wildberg",
    "country": "DE",
    "type": "small_airport",
    "lat": 48.614931,
    "lon": 8.755457
  },
  {
    "code": "DE-0048",
    "name": "Steinberg in Surwold Glider Airfield",
    "municipality": "Surwold",
    "country": "DE",
    "type": "small_airport",
    "lat": 52.956445,
    "lon": 7.556663
  },
  {
    "code": "DE-0049",
    "name": "Altfeld Airfield",
    "municipality": "Marktheidenfeld",
    "country": "DE",
    "type": "small_airport",
    "lat": 49.831865,
    "lon": 9.537292
  },
  {
    "code": "DE-0050",
    "name": "Alsfeld Airfield",
    "municipality": "Alsfeld",
    "country": "DE",
    "type": "small_airport",
    "lat": 50.750565,
    "lon": 9.248615
  },
  {
    "code": "DE-0051",
    "name": "Altdorf-Hagenhausen Airfield",
    "municipality": "Altdorf bei Nürnberg",
    "country": "DE",
    "type": "small_airport",
    "lat": 49.387387,
    "lon": 11.422305
  },
  {
    "code": "DE-0052",
    "name": "Bischofsberg Airfield",
    "municipality": "Mellrichstadt",
    "country": "DE",
    "type": "small_airport",
    "lat": 50.432197,
    "lon": 10.28316
  },
  {
    "code": "DE-0053",
    "name": "Cham-Janahof Airfield",
    "municipality": "Cham",
    "country": "DE",
    "type": "small_airport",
    "lat": 49.2120464989,
    "lon": 12.6541042328
  },
  {
    "code": "DE-0054",
    "name": "Dobenreuth Glider Field",
    "municipality": "Forchheim",
    "country": "DE",
    "type": "small_airport",
    "lat": 49.696802,
    "lon": 11.143212
  },
  {
    "code": "DE-0055",
    "name": "Tirschenreuth  Airfield",
    "municipality": "Tirschenreuth",
    "country": "DE",
    "type": "small_airport",
    "lat": 49.8739,
    "lon": 12.3281
  },
  {
    "code": "DE-0056",
    "name": "Paterzell Airfield",
    "municipality": "Wessobrunn",
    "country": "DE",
    "type": "small_airport",
    "lat": 47.84692,
    "lon": 11.061087
  },
  {
    "code": "DE-0057",
    "name": "Am Kreuzberg Glider Airfield",
    "municipality": "Saal an der Saale",
    "country": "DE",
    "type": "small_airport",
    "lat": 50.3088,
    "lon": 10.3734
  },
  {
    "code": "DE-0058",
    "name": "Kronach Airfield",
    "municipality": "Kronach",
    "country": "DE",
    "type": "small_airport",
    "lat": 50.243644,
    "lon": 11.3589
  },
  {
    "code": "DE-0059",
    "name": "Kaufbeuren Air Base",
    "municipality": "Kaufbeuren",
    "country": "DE",
    "type": "small_airport",
    "lat": 47.8617,
    "lon": 10.6143
  },
  {
    "code": "DE-0060",
    "name": "Karlstadt-Saupurzel Glider Field",
    "municipality": "Karlstadt am Main",
    "country": "DE",
    "type": "small_airport",
    "lat": 49.971234,
    "lon": 9.790516
  },
  {
    "code": "DE-0061",
    "name": "Altötting Airfield",
    "municipality": "Altötting",
    "country": "DE",
    "type": "small_airport",
    "lat": 48.2162,
    "lon": 12.6484
  },
  {
    "code": "DE-0062",
    "name": "Antersberg Airfield",
    "municipality": "Antersberg",
    "country": "DE",
    "type": "small_airport",
    "lat": 47.9629,
    "lon": 11.9955
  },
  {
    "code": "DE-0063",
    "name": "Rammertshof Amberg Airfield",
    "municipality": "Amberg",
    "country": "DE",
    "type": "small_airport",
    "lat": 49.4394,
    "lon": 11.8107
  },
  {
    "code": "DE-0064",
    "name": "Oberleichtersbach Airfield",
    "municipality": "Oberleichtersbach",
    "country": "DE",
    "type": "small_airport",
    "lat": 50.271942,
    "lon": 9.823622
  },
  {
    "code": "DE-0065",
    "name": "Tröstau Glider Field",
    "municipality": "Tröstau",
    "country": "DE",
    "type": "small_airport",
    "lat": 50.018763,
    "lon": 11.933259
  },
  {
    "code": "DE-0066",
    "name": "Königsdorf Gliding Center",
    "municipality": "Königsdorf",
    "country": "DE",
    "type": "small_airport",
    "lat": 47.82868,
    "lon": 11.465
  },
  {
    "code": "DE-0067",
    "name": "Dürabuch Glider Airfield",
    "municipality": "Dürabuch",
    "country": "DE",
    "type": "closed",
    "lat": 48.26225,
    "lon": 11.2094
  },
  {
    "code": "DE-0068",
    "name": "Erbendorf Airfield",
    "municipality": "Erbendorf",
    "country": "DE",
    "type": "small_airport",
    "lat": 49.8438,
    "lon": 12.06714
  },
  {
    "code": "DE-0069",
    "name": "Kleinhartpenning UL",
    "municipality": "Holzkirchen",
    "country": "DE",
    "type": "small_airport",
    "lat": 47.8519,
    "lon": 11.6667
  },
  {
    "code": "DE-0070",
    "name": "Frankfurt am Main Police Headquarters Heliport",
    "municipality": "Frankfurt am Main",
    "country": "DE",
    "type": "heliport",
    "lat": 50.13276,
    "lon": 8.67318
  },
  {
    "code": "DE-0071",
    "name": "Bad Königshofen Airfield",
    "municipality": "Bad Königshofen",
    "country": "DE",
    "type": "small_airport",
    "lat": 50.2876,
    "lon": 10.4225
  },
  {
    "code": "DE-0072",
    "name": "Bad Wörishofen Glider Airfield",
    "municipality": "Bad Wörishofen",
    "country": "DE",
    "type": "small_airport",
    "lat": 48.02678,
    "lon": 10.60135
  },
  {
    "code": "DE-0073",
    "name": "Benediktbeuern Airfield",
    "municipality": "Benediktbeuern",
    "country": "DE",
    "type": "small_airport",
    "lat": 47.71564,
    "lon": 11.3914
  },
  {
    "code": "DE-0074",
    "name": "Brannenburg Airfield",
    "municipality": "Brannenburg",
    "country": "DE",
    "type": "small_airport",
    "lat": 47.74075,
    "lon": 12.11548
  },
  {
    "code": "DE-0075",
    "name": "Ohlstadt Airfield",
    "municipality": "Ohlstadt",
    "country": "DE",
    "type": "small_airport",
    "lat": 47.65869,
    "lon": 11.23507
  },
  {
    "code": "DE-0076",
    "name": "Eschenlohe Airfield",
    "municipality": "Eschenlohe",
    "country": "DE",
    "type": "closed",
    "lat": 47.6235,
    "lon": 11.18388
  },
  {
    "code": "DE-0077",
    "name": "Büchig Airfield",
    "municipality": "Ostheim",
    "country": "DE",
    "type": "small_airport",
    "lat": 50.4483,
    "lon": 10.2526
  },
  {
    "code": "DE-0078",
    "name": "Fichtelbrunn Airfield",
    "municipality": "Neukirchen bei Sulzbach-Rosenberg",
    "country": "DE",
    "type": "small_airport",
    "lat": 49.49818,
    "lon": 11.6595
  },
  {
    "code": "DE-0079",
    "name": "Friesener Warte Airfield",
    "municipality": "Hirschaid",
    "country": "DE",
    "type": "small_airport",
    "lat": 49.8364,
    "lon": 11.04644
  },
  {
    "code": "DE-0080",
    "name": "Fürth-Seckendorf Airfield",
    "municipality": "Cadolzburg",
    "country": "DE",
    "type": "small_airport",
    "lat": 49.48152,
    "lon": 10.8588
  },
  {
    "code": "DE-0081",
    "name": "Füssen Glider Airfield",
    "municipality": "Füssen",
    "country": "DE",
    "type": "small_airport",
    "lat": 47.58306,
    "lon": 10.6909
  },
  {
    "code": "DE-0082",
    "name": "Gammelsdorf Glider Field",
    "municipality": "Gammelsdorf",
    "country": "DE",
    "type": "small_airport",
    "lat": 48.5679,
    "lon": 11.9325
  },
  {
    "code": "DE-0083",
    "name": "Geitau Airfield",
    "municipality": "Bayrischzell",
    "country": "DE",
    "type": "small_airport",
    "lat": 47.67835,
    "lon": 11.9631
  },
  {
    "code": "DE-0084",
    "name": "Geratshof Airfield",
    "municipality": "Landsberg am Lech",
    "country": "DE",
    "type": "small_airport",
    "lat": 47.992923,
    "lon": 10.843688
  },
  {
    "code": "DE-0085",
    "name": "Greding Glider Field",
    "municipality": "Greding",
    "country": "DE",
    "type": "small_airport",
    "lat": 49.0622,
    "lon": 11.2924
  },
  {
    "code": "DE-0086",
    "name": "Greiling Airfield",
    "municipality": "Bad Tölz",
    "country": "DE",
    "type": "small_airport",
    "lat": 47.7654,
    "lon": 11.59546
  },
  {
    "code": "DE-0087",
    "name": "Hallertau Airfield",
    "municipality": "Wolnzach",
    "country": "DE",
    "type": "small_airport",
    "lat": 48.64972,
    "lon": 11.59687
  },
  {
    "code": "DE-0088",
    "name": "Hersbruck Airfield",
    "municipality": "Hersbruck",
    "country": "DE",
    "type": "small_airport",
    "lat": 49.50753,
    "lon": 11.4438
  },
  {
    "code": "DE-0089",
    "name": "Hienheim Airfield",
    "municipality": "Hienheim",
    "country": "DE",
    "type": "small_airport",
    "lat": 48.87811,
    "lon": 11.76034
  },
  {
    "code": "DE-0090",
    "name": "Oberhinkofen Airfield",
    "municipality": "Obertraubling",
    "country": "DE",
    "type": "small_airport",
    "lat": 48.9517,
    "lon": 12.1467
  },
  {
    "code": "DE-0091",
    "name": "Oeventrop-Ruhrwiesen Airfield",
    "municipality": "Arnsberg",
    "country": "DE",
    "type": "small_airport",
    "lat": 51.395422,
    "lon": 8.147921
  },
  {
    "code": "DE-0092",
    "name": "Ottenberg Airfield",
    "municipality": "Berg bei Neumarkt in der Oberpfalz",
    "country": "DE",
    "type": "small_airport",
    "lat": 49.3287,
    "lon": 11.4797
  },
  {
    "code": "DE-0093",
    "name": "Unterwössen Airfield",
    "municipality": "Unterwössen",
    "country": "DE",
    "type": "small_airport",
    "lat": 47.72974,
    "lon": 12.4382
  },
  {
    "code": "DE-0094",
    "name": "Agathazell Airfield",
    "municipality": "Burgberg im Allgäu",
    "country": "DE",
    "type": "small_airport",
    "lat": 47.554788,
    "lon": 10.272868
  },
  {
    "code": "DE-0095",
    "name": "Alte Ems Airfield",
    "municipality": "Rhede (Ems)",
    "country": "DE",
    "type": "small_airport",
    "lat": 53.030765,
    "lon": 7.305385
  },
  {
    "code": "DE-0096",
    "name": "Am Salzgittersee Airfield",
    "municipality": "Salzgitter",
    "country": "DE",
    "type": "small_airport",
    "lat": 52.1702,
    "lon": 10.31573
  },
  {
    "code": "DE-0097",
    "name": "Staufenberg Glider Field",
    "municipality": "Staufenberg",
    "country": "DE",
    "type": "closed",
    "lat": 51.362,
    "lon": 9.6288
  },
  {
    "code": "DE-0098",
    "name": "Große Höhe Airfield",
    "municipality": "Ganderkesee",
    "country": "DE",
    "type": "small_airport",
    "lat": 52.9861,
    "lon": 8.5722
  },
  {
    "code": "DE-0099",
    "name": "Große Wiese Airfield",
    "municipality": "Wolfenbüttel",
    "country": "DE",
    "type": "small_airport",
    "lat": 52.13704,
    "lon": 10.5695
  },
  {
    "code": "DE-0100",
    "name": "Großes Moor Airfield",
    "municipality": "Adelheidsdorf",
    "country": "DE",
    "type": "small_airport",
    "lat": 52.5359,
    "lon": 10.02
  },
  {
    "code": "DE-0101",
    "name": "Hellenhagen Airfield",
    "municipality": "Halle",
    "country": "DE",
    "type": "small_airport",
    "lat": 52.02624,
    "lon": 9.5628
  },
  {
    "code": "DE-0102",
    "name": "Hellingst Airfield",
    "municipality": "Holste",
    "country": "DE",
    "type": "small_airport",
    "lat": 53.3751,
    "lon": 8.8498
  },
  {
    "code": "DE-0103",
    "name": "Rote Wiese Glider Field",
    "municipality": "Helmstedt",
    "country": "DE",
    "type": "small_airport",
    "lat": 52.2336,
    "lon": 10.9809
  },
  {
    "code": "DE-0104",
    "name": "Höpen Airfield",
    "municipality": "Schneverdingen",
    "country": "DE",
    "type": "small_airport",
    "lat": 53.1473,
    "lon": 9.796
  },
  {
    "code": "DE-0105",
    "name": "Holtorfsloh Airfield",
    "municipality": "Holtorfsloh",
    "country": "DE",
    "type": "small_airport",
    "lat": 53.3222,
    "lon": 10.0743
  },
  {
    "code": "DE-0106",
    "name": "Hoya Airfield",
    "municipality": "Hoya",
    "country": "DE",
    "type": "small_airport",
    "lat": 52.8119,
    "lon": 9.1638
  },
  {
    "code": "DE-0107",
    "name": "Gronau Airfield",
    "municipality": "An den sieben Bergen",
    "country": "DE",
    "type": "small_airport",
    "lat": 52.0578,
    "lon": 9.8104
  },
  {
    "code": "DE-0108",
    "name": "Aue bei Hattorf Airfield",
    "municipality": "Hattorf am Harz",
    "country": "DE",
    "type": "small_airport",
    "lat": 51.6334,
    "lon": 10.2544
  },
  {
    "code": "DE-0109",
    "name": "Brockzetel Glider Field",
    "municipality": "Aurich",
    "country": "DE",
    "type": "small_airport",
    "lat": 53.4814,
    "lon": 7.6511
  },
  {
    "code": "DE-0110",
    "name": "Bad Zwischenahn-Rostrup Airfield",
    "municipality": "Bad Zwischenahn",
    "country": "DE",
    "type": "small_airport",
    "lat": 53.2102,
    "lon": 7.9887
  },
  {
    "code": "DE-0111",
    "name": "Berliner Heide Airfield",
    "municipality": "Metzingen",
    "country": "DE",
    "type": "small_airport",
    "lat": 52.6697,
    "lon": 10.3705
  },
  {
    "code": "DE-0112",
    "name": "Bisperode Airfield",
    "municipality": "Coppenbrügge",
    "country": "DE",
    "type": "small_airport",
    "lat": 52.0788,
    "lon": 9.476
  },
  {
    "code": "DE-0113",
    "name": "Blexen Airfield",
    "municipality": "Blexen",
    "country": "DE",
    "type": "small_airport",
    "lat": 53.5383,
    "lon": 8.5388
  },
  {
    "code": "DE-0114",
    "name": "Farrenberg Gliderfield",
    "municipality": "Mössingen",
    "country": "DE",
    "type": "small_airport",
    "lat": 48.385706,
    "lon": 9.076333
  },
  {
    "code": "DE-0115",
    "name": "Oppershausen Airfield",
    "municipality": "Wienhausen",
    "country": "DE",
    "type": "small_airport",
    "lat": 52.5955,
    "lon": 10.2235
  },
  {
    "code": "DE-0116",
    "name": "Peißenberg Airfield",
    "municipality": "Peißenberg",
    "country": "DE",
    "type": "small_airport",
    "lat": 47.8337,
    "lon": 11.06685
  },
  {
    "code": "DE-0117",
    "name": "Quakenbrück Airfield",
    "municipality": "Quakenbrück",
    "country": "DE",
    "type": "small_airport",
    "lat": 52.6634,
    "lon": 7.9249
  },
  {
    "code": "DE-0118",
    "name": "Scheuen Airfield",
    "municipality": "Celle",
    "country": "DE",
    "type": "small_airport",
    "lat": 52.6693,
    "lon": 10.088
  },
  {
    "code": "DE-0119",
    "name": "Schnuckenheide-Repke Airfield",
    "municipality": "Repke",
    "country": "DE",
    "type": "closed",
    "lat": 52.7163,
    "lon": 10.5336
  },
  {
    "code": "DE-0120",
    "name": "Steinberg at Wessein Airfield",
    "municipality": "Wessein",
    "country": "DE",
    "type": "small_airport",
    "lat": 52.0838,
    "lon": 10.018
  },
  {
    "code": "DE-0121",
    "name": "Bohlenbergerfeld Airfield",
    "municipality": "Zetel",
    "country": "DE",
    "type": "small_airport",
    "lat": 53.418,
    "lon": 7.9039
  },
  {
    "code": "DE-0122",
    "name": "Bollrich Airfield",
    "municipality": "Goslar",
    "country": "DE",
    "type": "small_airport",
    "lat": 51.9058,
    "lon": 10.4619
  },
  {
    "code": "DE-0123",
    "name": "Bückeburg-Weinberg Airfield",
    "municipality": "Porta Westfalica",
    "country": "DE",
    "type": "small_airport",
    "lat": 52.2511,
    "lon": 9.0146
  },
  {
    "code": "DE-0124",
    "name": "Osterholz-Scharmbeck Airfield",
    "municipality": "Osterholz-Scharmbeck",
    "country": "DE",
    "type": "small_airport",
    "lat": 53.2135,
    "lon": 8.8102
  },
  {
    "code": "DE-0125",
    "name": "Peine-Glindbruchkippe Airfield",
    "municipality": "Peine",
    "country": "DE",
    "type": "small_airport",
    "lat": 52.3238,
    "lon": 10.1815
  },
  {
    "code": "DE-0126",
    "name": "Stüde Bernsteinsee Airfield",
    "municipality": "Sassenburg",
    "country": "DE",
    "type": "small_airport",
    "lat": 52.564326,
    "lon": 10.682343
  },
  {
    "code": "DE-0127",
    "name": "Sultmer Berg Airfield",
    "municipality": "Northeim",
    "country": "DE",
    "type": "small_airport",
    "lat": 51.73,
    "lon": 9.9925
  },
  {
    "code": "DE-0128",
    "name": "Tarmstedt Airfield",
    "municipality": "Westertimke",
    "country": "DE",
    "type": "small_airport",
    "lat": 53.2514,
    "lon": 9.1084
  },
  {
    "code": "DE-0129",
    "name": "Walsrode-Luisenhöhe Airfield",
    "municipality": "Walsrode",
    "country": "DE",
    "type": "small_airport",
    "lat": 52.8882,
    "lon": 9.6
  },
  {
    "code": "DE-0130",
    "name": "Ummern Airfield",
    "municipality": "Gifhorn",
    "country": "DE",
    "type": "small_airport",
    "lat": 52.6204,
    "lon": 10.4092
  },
  {
    "code": "DE-0131",
    "name": "Uslar Airfield",
    "municipality": "Uslar",
    "country": "DE",
    "type": "small_airport",
    "lat": 51.6619,
    "lon": 9.6044
  },
  {
    "code": "DE-0132",
    "name": "Wenzendorf Airfield",
    "municipality": "Wenzendorf",
    "country": "DE",
    "type": "small_airport",
    "lat": 53.3374,
    "lon": 9.7797
  },
  {
    "code": "DE-0133",
    "name": "Weper Airfield",
    "municipality": "Moringen",
    "country": "DE",
    "type": "small_airport",
    "lat": 51.7124,
    "lon": 9.8026
  },
  {
    "code": "DE-0134",
    "name": "FSV Illtal Airfield",
    "municipality": "Wustweiler",
    "country": "DE",
    "type": "small_airport",
    "lat": 49.41,
    "lon": 7.0547
  },
  {
    "code": "DE-0135",
    "name": "Amöneburg Airfield",
    "municipality": "Amöneburg",
    "country": "DE",
    "type": "small_airport",
    "lat": 50.78985,
    "lon": 8.90635
  },
  {
    "code": "DE-0136",
    "name": "Aßlarer Hütte Airfield",
    "municipality": "Aßlar",
    "country": "DE",
    "type": "small_airport",
    "lat": 50.5999,
    "lon": 8.4439
  },
  {
    "code": "DE-0137",
    "name": "Bensheimer Stadtwiesen Airfield",
    "municipality": "Bensheim",
    "country": "DE",
    "type": "small_airport",
    "lat": 49.6926,
    "lon": 8.5819
  },
  {
    "code": "DE-0138",
    "name": "Dehausen Airfield",
    "municipality": "Diemelstadt",
    "country": "DE",
    "type": "small_airport",
    "lat": 51.4635,
    "lon": 9.04925
  },
  {
    "code": "DE-0139",
    "name": "Braunfels Airfield",
    "municipality": "Kronberg im Taunus",
    "country": "DE",
    "type": "small_airport",
    "lat": 50.525446,
    "lon": 8.392514
  },
  {
    "code": "DE-0140",
    "name": "Der Dingel Airfield",
    "municipality": "Hofgeismar",
    "country": "DE",
    "type": "small_airport",
    "lat": 51.536,
    "lon": 9.3805
  },
  {
    "code": "DE-0141",
    "name": "Dornberg-Sontra Airfield",
    "municipality": "Sontra",
    "country": "DE",
    "type": "small_airport",
    "lat": 51.0873,
    "lon": 9.9155
  },
  {
    "code": "DE-0142",
    "name": "Eibinger Forstwiese Airfield",
    "municipality": "Rüdesheim am Rhein",
    "country": "DE",
    "type": "small_airport",
    "lat": 50.0186,
    "lon": 7.89324
  },
  {
    "code": "DE-0143",
    "name": "Garbenheimer Wiesen Glider Field",
    "municipality": "Wetzlar",
    "country": "DE",
    "type": "small_airport",
    "lat": 50.574,
    "lon": 8.529
  },
  {
    "code": "DE-0144",
    "name": "Gedern Glider Field",
    "municipality": "Gedern",
    "country": "DE",
    "type": "small_airport",
    "lat": 50.432302,
    "lon": 9.194312
  },
  {
    "code": "DE-0145",
    "name": "Gießen Airfield",
    "municipality": "Gießen",
    "country": "DE",
    "type": "small_airport",
    "lat": 50.6042,
    "lon": 8.7286
  },
  {
    "code": "DE-0146",
    "name": "Edermünde-Grifte Airfield",
    "municipality": "Grifte",
    "country": "DE",
    "type": "small_airport",
    "lat": 51.221,
    "lon": 9.4475
  },
  {
    "code": "DE-0147",
    "name": "Hessisch Lichtenau Airfield",
    "municipality": "Hessisch Lichtenau",
    "country": "DE",
    "type": "small_airport",
    "lat": 51.1888,
    "lon": 9.7434
  },
  {
    "code": "DE-0148",
    "name": "Hörbach Airfield",
    "municipality": "Herborn",
    "country": "DE",
    "type": "small_airport",
    "lat": 50.6683,
    "lon": 8.2604
  },
  {
    "code": "DE-0149",
    "name": "Hoherodskopf Airfield",
    "municipality": "Schotten",
    "country": "DE",
    "type": "small_airport",
    "lat": 50.5017,
    "lon": 9.2227
  },
  {
    "code": "DE-0150",
    "name": "Eudenbach Glider Field",
    "municipality": "Bad Honnef",
    "country": "DE",
    "type": "small_airport",
    "lat": 50.673223,
    "lon": 7.365639
  },
  {
    "code": "DE-0151",
    "name": "Huhnrain Airfield",
    "municipality": "Poppenhausen",
    "country": "DE",
    "type": "small_airport",
    "lat": 50.490126,
    "lon": 9.847907
  },
  {
    "code": "DE-0152",
    "name": "Johannisau Glider Field",
    "municipality": "Fulda",
    "country": "DE",
    "type": "small_airport",
    "lat": 50.536331,
    "lon": 9.66121
  },
  {
    "code": "DE-0153",
    "name": "Homberg (Ohm) Airfield",
    "municipality": "Homberg (Ohm)",
    "country": "DE",
    "type": "small_airport",
    "lat": 50.7465,
    "lon": 9.0192
  },
  {
    "code": "DE-0154",
    "name": "Langenberg Airfield",
    "municipality": "Niederaula",
    "country": "DE",
    "type": "small_airport",
    "lat": 50.7968,
    "lon": 9.5631
  },
  {
    "code": "DE-0155",
    "name": "Langenselbold Airfield",
    "municipality": "Langenselbold",
    "country": "DE",
    "type": "small_airport",
    "lat": 50.1764,
    "lon": 9.0648
  },
  {
    "code": "DE-0156",
    "name": "Laufenselden Glider Field",
    "municipality": "Heidenrod",
    "country": "DE",
    "type": "small_airport",
    "lat": 50.2217,
    "lon": 7.9985
  },
  {
    "code": "DE-0157",
    "name": "Pütnitz-Damgarten Airfield",
    "municipality": "Ribnitz-Damgarten",
    "country": "DE",
    "type": "closed",
    "lat": 54.263124,
    "lon": 12.439359
  },
  {
    "code": "DE-0158",
    "name": "Reinheim Airfield",
    "municipality": "Reinheim",
    "country": "DE",
    "type": "small_airport",
    "lat": 49.84,
    "lon": 8.851
  },
  {
    "code": "DE-0159",
    "name": "Pfingstweide Airfield",
    "municipality": "Butzbach",
    "country": "DE",
    "type": "small_airport",
    "lat": 50.435682,
    "lon": 8.62067
  },
  {
    "code": "DE-0160",
    "name": "Plätzer Airfield",
    "municipality": "Burghaun",
    "country": "DE",
    "type": "small_airport",
    "lat": 50.709341,
    "lon": 9.738779
  },
  {
    "code": "DE-0161",
    "name": "Pohlheim Airfield",
    "municipality": "Pohlheim",
    "country": "DE",
    "type": "small_airport",
    "lat": 50.5322,
    "lon": 8.7334
  },
  {
    "code": "DE-0162",
    "name": "Riedelbach Airfield",
    "municipality": "Weilrod",
    "country": "DE",
    "type": "small_airport",
    "lat": 50.3024,
    "lon": 8.3845
  },
  {
    "code": "DE-0163",
    "name": "Rothenberg Airfield",
    "municipality": "Oberzent",
    "country": "DE",
    "type": "small_airport",
    "lat": 49.485747,
    "lon": 8.935769
  },
  {
    "code": "DE-0164",
    "name": "Schotten Airfield",
    "municipality": "Schotten",
    "country": "DE",
    "type": "small_airport",
    "lat": 50.5348,
    "lon": 9.1455
  },
  {
    "code": "DE-0165",
    "name": "Stauffenbühl Airfield",
    "municipality": "Eschwege",
    "country": "DE",
    "type": "small_airport",
    "lat": 51.1592,
    "lon": 10.0472
  },
  {
    "code": "DE-0166",
    "name": "Eschwege Airfield",
    "municipality": "Eschwege",
    "country": "DE",
    "type": "closed",
    "lat": 51.197,
    "lon": 10.025
  },
  {
    "code": "DE-0167",
    "name": "Michelbach Glider Field",
    "municipality": "Aarbergen",
    "country": "DE",
    "type": "small_airport",
    "lat": 50.2317,
    "lon": 8.077
  },
  {
    "code": "DE-0168",
    "name": "Nidda Airfield",
    "municipality": "Nidda",
    "country": "DE",
    "type": "small_airport",
    "lat": 50.4053,
    "lon": 8.9881
  },
  {
    "code": "DE-0169",
    "name": "Vielbrunn Airfield",
    "municipality": "Michelstadt",
    "country": "DE",
    "type": "small_airport",
    "lat": 49.7193,
    "lon": 9.0823
  },
  {
    "code": "DE-0170",
    "name": "Oberems Glider Field",
    "municipality": "Glashütten",
    "country": "DE",
    "type": "small_airport",
    "lat": 50.242,
    "lon": 8.3986
  },
  {
    "code": "DE-0171",
    "name": "Arnsberg-Ruhrwiese Airfield",
    "municipality": "Arnsberg",
    "country": "DE",
    "type": "small_airport",
    "lat": 51.3878,
    "lon": 8.0605
  },
  {
    "code": "DE-0172",
    "name": "Bergheim Airfield",
    "municipality": "Bergheim",
    "country": "DE",
    "type": "small_airport",
    "lat": 50.9772,
    "lon": 6.6085
  },
  {
    "code": "DE-0173",
    "name": "Ziegenhain-Der Ring Airfield",
    "municipality": "Schwalmstadt",
    "country": "DE",
    "type": "small_airport",
    "lat": 50.9026,
    "lon": 9.2403
  },
  {
    "code": "DE-0174",
    "name": "Borghorst Airfield",
    "municipality": "Steinfurt",
    "country": "DE",
    "type": "small_airport",
    "lat": 52.1505,
    "lon": 7.4531
  },
  {
    "code": "DE-0175",
    "name": "Büren Airfield",
    "municipality": "Büren",
    "country": "DE",
    "type": "small_airport",
    "lat": 51.5427,
    "lon": 8.5808
  },
  {
    "code": "DE-0176",
    "name": "Dorsten-Am Kanal Airfield",
    "municipality": "Dorsten",
    "country": "DE",
    "type": "small_airport",
    "lat": 51.6621,
    "lon": 6.9856
  },
  {
    "code": "DE-0177",
    "name": "Düren-Hürtgenwald Airfield",
    "municipality": "Hürtgenwald",
    "country": "DE",
    "type": "small_airport",
    "lat": 50.6937,
    "lon": 6.4185
  },
  {
    "code": "DE-0178",
    "name": "Düsseldorf-Wolfsaap Glider Field",
    "municipality": "Düsseldorf",
    "country": "DE",
    "type": "small_airport",
    "lat": 51.2649,
    "lon": 6.8539
  },
  {
    "code": "DE-0179",
    "name": "Emmerich Airfield",
    "municipality": "Emmerich am Rhein",
    "country": "DE",
    "type": "small_airport",
    "lat": 51.8221,
    "lon": 6.2745
  },
  {
    "code": "DE-0180",
    "name": "Gustorfer Höhe Airfield",
    "municipality": "Grevenbroich",
    "country": "DE",
    "type": "small_airport",
    "lat": 51.0767,
    "lon": 6.5475
  },
  {
    "code": "DE-0181",
    "name": "Halver Airfield",
    "municipality": "Halver",
    "country": "DE",
    "type": "closed",
    "lat": 51.1741,
    "lon": 7.5045
  },
  {
    "code": "DE-0182",
    "name": "Hengsen-Opherdicke Airfield",
    "municipality": "Holzwickede",
    "country": "DE",
    "type": "small_airport",
    "lat": 51.4729,
    "lon": 7.6451
  },
  {
    "code": "DE-0183",
    "name": "Welzheim Airfield",
    "municipality": "Welzheim",
    "country": "DE",
    "type": "small_airport",
    "lat": 48.8763,
    "lon": 9.6537
  },
  {
    "code": "DE-0184",
    "name": "Stolberg-Diepenlinchen Airfield",
    "municipality": "Stolberg",
    "country": "DE",
    "type": "small_airport",
    "lat": 50.768793,
    "lon": 6.280189
  },
  {
    "code": "DE-0185",
    "name": "Sevelen Glider Field",
    "municipality": "Rheinhausen",
    "country": "DE",
    "type": "closed",
    "lat": 51.4857,
    "lon": 6.4284
  },
  {
    "code": "DE-0186",
    "name": "Hilden-Kesselweier Airfield",
    "municipality": "Kesselweier",
    "country": "DE",
    "type": "closed",
    "lat": 51.1873,
    "lon": 6.9746
  },
  {
    "code": "DE-0187",
    "name": "Iserlohn-Rheinermark Airfield",
    "municipality": "Iserlohn",
    "country": "DE",
    "type": "small_airport",
    "lat": 51.4293,
    "lon": 7.6436
  },
  {
    "code": "DE-0188",
    "name": "Kamen-Heeren Airfield",
    "municipality": "Kamen",
    "country": "DE",
    "type": "small_airport",
    "lat": 51.590283,
    "lon": 7.709785
  },
  {
    "code": "DE-0189",
    "name": "Langenfeld-Wiescheid Airfield",
    "municipality": "Langenfeld",
    "country": "DE",
    "type": "small_airport",
    "lat": 51.1409,
    "lon": 6.9849
  },
  {
    "code": "DE-0190",
    "name": "Stapelburg Airfield",
    "municipality": "Stapelburg",
    "country": "DE",
    "type": "small_airport",
    "lat": 51.914044,
    "lon": 10.68326
  },
  {
    "code": "DE-0191",
    "name": "Aukrug Airfield",
    "municipality": "Aukrug",
    "country": "DE",
    "type": "small_airport",
    "lat": 54.0647,
    "lon": 9.7983
  },
  {
    "code": "DE-0192",
    "name": "Lindlar Glider Field",
    "municipality": "Lindlar",
    "country": "DE",
    "type": "small_airport",
    "lat": 50.9952,
    "lon": 7.3738
  },
  {
    "code": "DE-0193",
    "name": "Altenbachtal Glider Field",
    "municipality": "Aschaffenburg",
    "country": "DE",
    "type": "small_airport",
    "lat": 49.922867,
    "lon": 9.158177
  },
  {
    "code": "DE-0194",
    "name": "Bell-Hundheim UL",
    "municipality": "Bell",
    "country": "DE",
    "type": "small_airport",
    "lat": 50.027566,
    "lon": 7.421959
  },
  {
    "code": "DE-0195",
    "name": "Dankern Airfield",
    "municipality": "Haren (Ems)",
    "country": "DE",
    "type": "small_airport",
    "lat": 52.802319,
    "lon": 7.160291
  },
  {
    "code": "DE-0196",
    "name": "Kückhoven Ultralight Airfield",
    "municipality": "Erkelenz",
    "country": "DE",
    "type": "small_airport",
    "lat": 51.064809,
    "lon": 6.359596
  },
  {
    "code": "DE-0197",
    "name": "Heinsberg-Selfkant Ultralight Airfield",
    "municipality": "Waldfeucht",
    "country": "DE",
    "type": "small_airport",
    "lat": 51.050556,
    "lon": 6.054167
  },
  {
    "code": "DE-0198",
    "name": "Dolmar Airfield",
    "municipality": "Kühndorf",
    "country": "DE",
    "type": "small_airport",
    "lat": 50.6125,
    "lon": 10.472778
  },
  {
    "code": "DE-0199",
    "name": "Ippesheim Ultralight Airfield",
    "municipality": "Ippesheim",
    "country": "DE",
    "type": "small_airport",
    "lat": 49.60982,
    "lon": 10.225507
  },
  {
    "code": "DE-0200",
    "name": "Kerken Ultralight Airfield",
    "municipality": "Kerken",
    "country": "DE",
    "type": "small_airport",
    "lat": 51.438889,
    "lon": 6.445556
  },
  {
    "code": "DE-0201",
    "name": "Vettweiß-Soller ULM",
    "municipality": "Vettweiß",
    "country": "DE",
    "type": "small_airport",
    "lat": 50.7475,
    "lon": 6.566944
  },
  {
    "code": "DE-0202",
    "name": "Eutingen Airfield",
    "municipality": "Eutingen im Gäu",
    "country": "DE",
    "type": "small_airport",
    "lat": 48.485439,
    "lon": 8.778033
  },
  {
    "code": "DE-0203",
    "name": "Lünen-Lippeweiden Glider Field",
    "municipality": "Lünen",
    "country": "DE",
    "type": "small_airport",
    "lat": 51.6171,
    "lon": 7.501
  },
  {
    "code": "DE-0204",
    "name": "Meiersberg Airfield",
    "municipality": "Heiligenhaus",
    "country": "DE",
    "type": "small_airport",
    "lat": 51.2996,
    "lon": 6.9565
  },
  {
    "code": "DE-0205",
    "name": "Menden-Barge Airfield",
    "municipality": "Menden",
    "country": "DE",
    "type": "small_airport",
    "lat": 51.46,
    "lon": 7.8376
  },
  {
    "code": "DE-0206",
    "name": "Löchgau Airfield",
    "municipality": "Löchgau",
    "country": "DE",
    "type": "small_airport",
    "lat": 49.001065,
    "lon": 9.082403
  },
  {
    "code": "DE-0207",
    "name": "Radevormwald-Leye Glider Field",
    "municipality": "Radevormwald",
    "country": "DE",
    "type": "small_airport",
    "lat": 51.216437,
    "lon": 7.382147
  },
  {
    "code": "DE-0208",
    "name": "Siegen-Eisernhardt Airfield",
    "municipality": "Siegen",
    "country": "DE",
    "type": "small_airport",
    "lat": 50.8375,
    "lon": 8.0141
  },
  {
    "code": "DE-0209",
    "name": "Sundern-Seidfeld Airfield",
    "municipality": "Sundern",
    "country": "DE",
    "type": "closed",
    "lat": 51.3032,
    "lon": 7.9807
  },
  {
    "code": "DE-0210",
    "name": "Wanlo Glider Field",
    "municipality": "Mönchengladbach",
    "country": "DE",
    "type": "small_airport",
    "lat": 51.101,
    "lon": 6.3936
  },
  {
    "code": "DE-0211",
    "name": "Warburg-Am Heinberg Airfield",
    "municipality": "Warburg",
    "country": "DE",
    "type": "small_airport",
    "lat": 51.4973,
    "lon": 9.0876
  },
  {
    "code": "DE-0212",
    "name": "Evangelisches Jung-Stilling Hospital Helipad",
    "municipality": "Siegen",
    "country": "DE",
    "type": "heliport",
    "lat": 50.8518,
    "lon": 8.0184
  },
  {
    "code": "DE-0213",
    "name": "Weipertshofen Airfield",
    "municipality": "Stimpfach",
    "country": "DE",
    "type": "small_airport",
    "lat": 49.086572,
    "lon": 10.123837
  },
  {
    "code": "DE-0214",
    "name": "Gießen University Hospital Heliport",
    "municipality": "Gießen",
    "country": "DE",
    "type": "heliport",
    "lat": 50.5759,
    "lon": 8.6671
  },
  {
    "code": "DE-0215",
    "name": "Ludwigshafen Airfield",
    "municipality": "Dannstadt",
    "country": "DE",
    "type": "small_airport",
    "lat": 49.4131,
    "lon": 8.3518
  },
  {
    "code": "DE-0216",
    "name": "Heilbronn Hospital Helipad",
    "municipality": "Heilbronn",
    "country": "DE",
    "type": "heliport",
    "lat": 49.1532,
    "lon": 9.1918
  },
  {
    "code": "DE-0217",
    "name": "Ahlen Airfield",
    "municipality": "Ahlen",
    "country": "DE",
    "type": "small_airport",
    "lat": 51.784001,
    "lon": 7.909969
  },
  {
    "code": "DE-0218",
    "name": "Waldeck Airfield",
    "municipality": "Waldeck",
    "country": "DE",
    "type": "small_airport",
    "lat": 51.2267,
    "lon": 9.0554
  },
  {
    "code": "DE-0219",
    "name": "Vinsebeck Airfield",
    "municipality": "Steinheim",
    "country": "DE",
    "type": "small_airport",
    "lat": 51.8453,
    "lon": 9.0141
  },
  {
    "code": "DE-0220",
    "name": "Stillberghof Airfield",
    "municipality": "Donauwörth",
    "country": "DE",
    "type": "small_airport",
    "lat": 48.7309,
    "lon": 10.834
  },
  {
    "code": "DE-0221",
    "name": "GSD Airport",
    "municipality": "Stockheim",
    "country": "DE",
    "type": "closed",
    "lat": 50.329062,
    "lon": 11.282344
  },
  {
    "code": "DE-0222",
    "name": "Altomünster Airfield",
    "municipality": "Altomünster",
    "country": "DE",
    "type": "small_airport",
    "lat": 48.381953,
    "lon": 11.272777
  },
  {
    "code": "DE-0223",
    "name": "Bad Bibra Airfield",
    "municipality": "Finne",
    "country": "DE",
    "type": "small_airport",
    "lat": 51.20199,
    "lon": 11.498222
  },
  {
    "code": "DE-0224",
    "name": "Reute/Bad Waldsee Airfield",
    "municipality": "Bad Waldsee",
    "country": "DE",
    "type": "small_airport",
    "lat": 47.915,
    "lon": 9.710278
  },
  {
    "code": "DE-0225",
    "name": "Berg Airfield",
    "municipality": "Berg",
    "country": "DE",
    "type": "small_airport",
    "lat": 47.830746,
    "lon": 9.539587
  },
  {
    "code": "DE-0226",
    "name": "Bobzin Ultralight Airfield",
    "municipality": "Bobzin",
    "country": "DE",
    "type": "small_airport",
    "lat": 53.486111,
    "lon": 11.168333
  },
  {
    "code": "DE-0227",
    "name": "Bösingen-Dunningen Airfield",
    "municipality": "Bösingen",
    "country": "DE",
    "type": "small_airport",
    "lat": 48.227671,
    "lon": 8.534725
  },
  {
    "code": "DE-0228",
    "name": "Dingelstedt Airfield",
    "municipality": "Huy",
    "country": "DE",
    "type": "small_airport",
    "lat": 51.986122,
    "lon": 10.967081
  },
  {
    "code": "DE-0229",
    "name": "Schlechtenfeld Glider Strip",
    "municipality": "Ehingen",
    "country": "DE",
    "type": "small_airport",
    "lat": 48.284722,
    "lon": 9.673333
  },
  {
    "code": "DE-0230",
    "name": "Riesa-Canitz Airfield",
    "municipality": "Riesa",
    "country": "DE",
    "type": "small_airport",
    "lat": 51.3024,
    "lon": 13.228
  },
  {
    "code": "DE-0231",
    "name": "Gronenfelde",
    "municipality": "",
    "country": "DE",
    "type": "closed",
    "lat": 52.363889,
    "lon": 14.496111
  },
  {
    "code": "DE-0232",
    "name": "Gerolzhofen Model Airfield",
    "municipality": "Gerolzhofen",
    "country": "DE",
    "type": "small_airport",
    "lat": 49.888008,
    "lon": 10.376308
  },
  {
    "code": "DE-0233",
    "name": "Grünstadt Airfield",
    "municipality": "Grünstadt",
    "country": "DE",
    "type": "small_airport",
    "lat": 49.5855556,
    "lon": 8.1388889
  },
  {
    "code": "DE-0234",
    "name": "Heiligenberg Glider Field",
    "municipality": "Heiligenberg",
    "country": "DE",
    "type": "small_airport",
    "lat": 47.83291,
    "lon": 9.30127
  },
  {
    "code": "DE-0235",
    "name": "Hohenthann Airfield",
    "municipality": "Hohenthann",
    "country": "DE",
    "type": "small_airport",
    "lat": 48.664444,
    "lon": 12.053611
  },
  {
    "code": "DE-0236",
    "name": "Irsingen-Hesselberg Airfield",
    "municipality": "Gerolfingen",
    "country": "DE",
    "type": "small_airport",
    "lat": 49.038375,
    "lon": 10.503145
  },
  {
    "code": "DE-0237",
    "name": "Landau-Ebenberg Airfield",
    "municipality": "Landau in der Pfalz",
    "country": "DE",
    "type": "small_airport",
    "lat": 49.176859,
    "lon": 8.131229
  },
  {
    "code": "DE-0238",
    "name": "Klippeneck Airfield",
    "municipality": "Denkingen",
    "country": "DE",
    "type": "small_airport",
    "lat": 48.1075,
    "lon": 8.762778
  },
  {
    "code": "DE-0239",
    "name": "Wasentegernbach",
    "municipality": "",
    "country": "DE",
    "type": "small_airport",
    "lat": 48.2777778,
    "lon": 12.2222222
  },
  {
    "code": "DE-0240",
    "name": "Weilerswist UL",
    "municipality": "Weilerswist",
    "country": "DE",
    "type": "small_airport",
    "lat": 50.719051,
    "lon": 6.84989
  },
  {
    "code": "DE-0241",
    "name": "Wildberg Airfield",
    "municipality": "Weißensberg",
    "country": "DE",
    "type": "small_airport",
    "lat": 47.600278,
    "lon": 9.741944
  },
  {
    "code": "DE-0242",
    "name": "Kell Airfield",
    "municipality": "Kell am See",
    "country": "DE",
    "type": "small_airport",
    "lat": 49.6216667,
    "lon": 6.8402778
  },
  {
    "code": "DE-0243",
    "name": "Lobeda Heliport",
    "municipality": "Jena",
    "country": "DE",
    "type": "heliport",
    "lat": 50.89538,
    "lon": 11.6027
  },
  {
    "code": "DE-0244",
    "name": "Vaihingen an der Enz Airfield",
    "municipality": "Vaihingen an der Enz",
    "country": "DE",
    "type": "small_airport",
    "lat": 48.9362,
    "lon": 8.9736
  },
  {
    "code": "DE-0245",
    "name": "SRH Hospital Helipad",
    "municipality": "Suhl",
    "country": "DE",
    "type": "heliport",
    "lat": 50.603,
    "lon": 10.7104
  },
  {
    "code": "DE-0246",
    "name": "Urspring Airfield",
    "municipality": "Lonsee",
    "country": "DE",
    "type": "closed",
    "lat": 48.553,
    "lon": 9.9038
  },
  {
    "code": "DE-0247",
    "name": "Übersberg Airfield",
    "municipality": "Pfullingen",
    "country": "DE",
    "type": "small_airport",
    "lat": 48.4584,
    "lon": 9.2977
  },
  {
    "code": "DE-0248",
    "name": "Titschendorf Airfield",
    "municipality": "Wurzbach",
    "country": "DE",
    "type": "small_airport",
    "lat": 50.3941,
    "lon": 11.5217
  },
  {
    "code": "DE-0249",
    "name": "Konz-Könen Glider Field",
    "municipality": "Konz",
    "country": "DE",
    "type": "small_airport",
    "lat": 49.675969,
    "lon": 6.543002
  },
  {
    "code": "DE-0250",
    "name": "Tauberbischofsheim Glider Field",
    "municipality": "Tauberbischofsheim",
    "country": "DE",
    "type": "small_airport",
    "lat": 49.6477,
    "lon": 9.6326
  },
  {
    "code": "DE-0251",
    "name": "Singhofen Airfield",
    "municipality": "Singhofen",
    "country": "DE",
    "type": "small_airport",
    "lat": 50.2714,
    "lon": 7.8548
  },
  {
    "code": "DE-0252",
    "name": "Nastätten Glider Field",
    "municipality": "Nastätten",
    "country": "DE",
    "type": "small_airport",
    "lat": 50.198,
    "lon": 7.89
  },
  {
    "code": "DE-0253",
    "name": "Montabaur Airfield",
    "municipality": "Westerwald",
    "country": "DE",
    "type": "small_airport",
    "lat": 50.422638,
    "lon": 7.827973
  },
  {
    "code": "DE-0254",
    "name": "Arnschwang ULM",
    "municipality": "Arnschwang",
    "country": "DE",
    "type": "small_airport",
    "lat": 49.271627,
    "lon": 12.778309
  },
  {
    "code": "DE-0255",
    "name": "Erpetshof UL",
    "municipality": "Vohenstrauß",
    "country": "DE",
    "type": "closed",
    "lat": 49.657417,
    "lon": 12.293667
  },
  {
    "code": "DE-0256",
    "name": "Perleberg Glider Field",
    "municipality": "",
    "country": "DE",
    "type": "small_airport",
    "lat": 53.070464,
    "lon": 11.818672
  },
  {
    "code": "DE-0257",
    "name": "Niepars Airfield",
    "municipality": "Niepars",
    "country": "DE",
    "type": "closed",
    "lat": 54.304566,
    "lon": 12.910596
  },
  {
    "code": "DE-0258",
    "name": "Neu-Gülze Airfield",
    "municipality": "Neu-Gülze",
    "country": "DE",
    "type": "small_airport",
    "lat": 53.381,
    "lon": 10.804
  },
  {
    "code": "DE-0259",
    "name": "Neuruppin Airfield",
    "municipality": "Berlin",
    "country": "DE",
    "type": "small_airport",
    "lat": 52.94127,
    "lon": 12.78
  },
  {
    "code": "DE-0260",
    "name": "Mönchsheide Glider Field",
    "municipality": "Bad Breisig",
    "country": "DE",
    "type": "small_airport",
    "lat": 50.508023,
    "lon": 7.256813
  },
  {
    "code": "DE-0261",
    "name": "Kusel-Langenbach Airfield",
    "municipality": "Langenbach",
    "country": "DE",
    "type": "small_airport",
    "lat": 49.4779,
    "lon": 7.3094
  },
  {
    "code": "DE-0262",
    "name": "Klein Gartz Airfield",
    "municipality": "Salzwedel",
    "country": "DE",
    "type": "small_airport",
    "lat": 52.828,
    "lon": 11.316
  },
  {
    "code": "DE-0263",
    "name": "Kirn Airfield",
    "municipality": "Kirn",
    "country": "DE",
    "type": "small_airport",
    "lat": 49.773,
    "lon": 7.5217
  },
  {
    "code": "DE-0264",
    "name": "Helios Sankt Elisabeth Hospital Bad Kissingen Heliport",
    "municipality": "Bad Kissingen",
    "country": "DE",
    "type": "heliport",
    "lat": 50.190243,
    "lon": 10.082644
  },
  {
    "code": "DE-0265",
    "name": "Kißlegg Autobahn Police Heliport",
    "municipality": "Kißlegg",
    "country": "DE",
    "type": "heliport",
    "lat": 47.7689,
    "lon": 9.8921
  },
  {
    "code": "DE-0266",
    "name": "Wangen-Kißlegg Airfield",
    "municipality": "Wangen im Allgäu",
    "country": "DE",
    "type": "small_airport",
    "lat": 47.753962,
    "lon": 9.86219
  },
  {
    "code": "DE-0267",
    "name": "Tübingen Trauma Hospital Rooftop Helipad",
    "municipality": "Tübingen",
    "country": "DE",
    "type": "heliport",
    "lat": 48.532977,
    "lon": 9.03551
  },
  {
    "code": "DE-0268",
    "name": "Tübingen University Hospital Rooftop Helipad (Crona Kliniken)",
    "municipality": "Tübingen",
    "country": "DE",
    "type": "heliport",
    "lat": 48.529734,
    "lon": 9.038094
  },
  {
    "code": "DE-0269",
    "name": "Kammermark Airfield",
    "municipality": "Pritzwalk",
    "country": "DE",
    "type": "small_airport",
    "lat": 53.1953,
    "lon": 12.1642
  },
  {
    "code": "DE-0270",
    "name": "Grambeker Heide Airfield",
    "municipality": "Mölln",
    "country": "DE",
    "type": "small_airport",
    "lat": 53.5834,
    "lon": 10.6985
  },
  {
    "code": "DE-0271",
    "name": "Fischbek Airfield",
    "municipality": "Fischbek",
    "country": "DE",
    "type": "small_airport",
    "lat": 53.4561,
    "lon": 9.8317
  },
  {
    "code": "DE-0272",
    "name": "Eßweiler Airfield",
    "municipality": "Eßweiler",
    "country": "DE",
    "type": "small_airport",
    "lat": 49.5621,
    "lon": 7.58
  },
  {
    "code": "DE-0273",
    "name": "Daun-Senheld Glider Field",
    "municipality": "Mehren",
    "country": "DE",
    "type": "small_airport",
    "lat": 50.175895,
    "lon": 6.857754
  },
  {
    "code": "DE-0274",
    "name": "Dauborn Airfield",
    "municipality": "Hünfelden",
    "country": "DE",
    "type": "small_airport",
    "lat": 50.321667,
    "lon": 8.193889
  },
  {
    "code": "DE-0275",
    "name": "Dillingen Airfield",
    "municipality": "Saarlouis",
    "country": "DE",
    "type": "small_airport",
    "lat": 49.3863,
    "lon": 6.7493
  },
  {
    "code": "DE-0276",
    "name": "Antdorf Ultralight Airfield",
    "municipality": "Antdorf",
    "country": "DE",
    "type": "small_airport",
    "lat": 47.760048,
    "lon": 11.304356
  },
  {
    "code": "DE-0277",
    "name": "Söller Airfield",
    "municipality": "Bundenthal",
    "country": "DE",
    "type": "small_airport",
    "lat": 49.0934,
    "lon": 7.7941
  },
  {
    "code": "DE-0278",
    "name": "Aventoft Airfield",
    "municipality": "Aventoft",
    "country": "DE",
    "type": "small_airport",
    "lat": 54.8961,
    "lon": 8.8208
  },
  {
    "code": "DE-0279",
    "name": "Esslingen-Jägerhaus Airfield",
    "municipality": "Esslingen",
    "country": "DE",
    "type": "small_airport",
    "lat": 48.762222,
    "lon": 9.333889
  },
  {
    "code": "DE-0280",
    "name": "Bad Marienberg Airfield",
    "municipality": "Oberroßbach",
    "country": "DE",
    "type": "small_airport",
    "lat": 50.6611,
    "lon": 8.0276
  },
  {
    "code": "DE-0281",
    "name": "Baumerlenbach Airfield",
    "municipality": "Langenbrettach",
    "country": "DE",
    "type": "small_airport",
    "lat": 49.231,
    "lon": 9.421
  },
  {
    "code": "DE-0282",
    "name": "Berneck Airfield",
    "municipality": "Deggingen",
    "country": "DE",
    "type": "small_airport",
    "lat": 48.5737,
    "lon": 9.7291
  },
  {
    "code": "DE-0283",
    "name": "Auf der Schaufel Ultralight Airfield",
    "municipality": "Bad Wildungen",
    "country": "DE",
    "type": "small_airport",
    "lat": 51.093889,
    "lon": 9.148333
  },
  {
    "code": "DE-0284",
    "name": "Roßberg Becherbach Airfield",
    "municipality": "Nußbach",
    "country": "DE",
    "type": "small_airport",
    "lat": 49.642961,
    "lon": 7.6841
  },
  {
    "code": "DE-0285",
    "name": "Brakel Airfield",
    "municipality": "Brakel",
    "country": "DE",
    "type": "small_airport",
    "lat": 51.738682,
    "lon": 9.19977
  },
  {
    "code": "DE-0286",
    "name": "Ernzen Airfield",
    "municipality": "Ernzen",
    "country": "DE",
    "type": "small_airport",
    "lat": 49.828271,
    "lon": 6.434691
  },
  {
    "code": "DE-0287",
    "name": "Drensteinfurt Ultralight Airfield",
    "municipality": "Drensteinfurt",
    "country": "DE",
    "type": "small_airport",
    "lat": 51.767335,
    "lon": 7.747003
  },
  {
    "code": "DE-0288",
    "name": "Haiterbach-Nagold Glider Field",
    "municipality": "Nagold",
    "country": "DE",
    "type": "small_airport",
    "lat": 48.531389,
    "lon": 8.675278
  },
  {
    "code": "DE-0289",
    "name": "Imsweiler UL",
    "municipality": "Imsweiler",
    "country": "DE",
    "type": "small_airport",
    "lat": 49.606543,
    "lon": 7.795593
  },
  {
    "code": "DE-0290",
    "name": "Linnich-Boslar Ultralight Airfield",
    "municipality": "Linnich",
    "country": "DE",
    "type": "small_airport",
    "lat": 50.962572,
    "lon": 6.33678
  },
  {
    "code": "DE-0291",
    "name": "Morschenich Ultralight Airfield",
    "municipality": "Merzenich",
    "country": "DE",
    "type": "small_airport",
    "lat": 50.873203,
    "lon": 6.552472
  },
  {
    "code": "DE-0292",
    "name": "Paradiek Lohne bei Vechta",
    "municipality": "Lohne",
    "country": "DE",
    "type": "small_airport",
    "lat": 52.6680556,
    "lon": 8.3213889
  },
  {
    "code": "DE-0293",
    "name": "Riedlingen Airfield",
    "municipality": "Riedlingen",
    "country": "DE",
    "type": "small_airport",
    "lat": 48.144444,
    "lon": 9.466666
  },
  {
    "code": "DE-0294",
    "name": "Zschorna Ultralight Airfield",
    "municipality": "Lossatal",
    "country": "DE",
    "type": "small_airport",
    "lat": 51.386455,
    "lon": 12.821102
  },
  {
    "code": "DE-0295",
    "name": "Müllheim Airfield",
    "municipality": "Müllheim",
    "country": "DE",
    "type": "small_airport",
    "lat": 47.824316,
    "lon": 7.639475
  },
  {
    "code": "DE-0296",
    "name": "Peiting Airfield",
    "municipality": "Peiting",
    "country": "DE",
    "type": "small_airport",
    "lat": 47.757478,
    "lon": 10.904481
  },
  {
    "code": "DE-0297",
    "name": "Westhausen Ultralight Airfield",
    "municipality": "Westhausen",
    "country": "DE",
    "type": "small_airport",
    "lat": 50.304202,
    "lon": 10.679784
  },
  {
    "code": "DE-0298",
    "name": "Deckenpfronn-Egelsee Airfield",
    "municipality": "Sindelfingen",
    "country": "DE",
    "type": "small_airport",
    "lat": 48.6385,
    "lon": 8.8175
  },
  {
    "code": "DE-0299",
    "name": "Boberg Airfield",
    "municipality": "",
    "country": "DE",
    "type": "small_airport",
    "lat": 53.5147,
    "lon": 10.1442
  },
  {
    "code": "DE-0300",
    "name": "Bohlhof Glider Field",
    "municipality": "Wutöschingen",
    "country": "DE",
    "type": "small_airport",
    "lat": 47.6509,
    "lon": 8.3867
  },
  {
    "code": "DE-0301",
    "name": "Degmarn Glider Field",
    "municipality": "Oedheim",
    "country": "DE",
    "type": "small_airport",
    "lat": 49.2579,
    "lon": 9.2745
  },
  {
    "code": "DE-0302",
    "name": "Hangensteiner Hof Airfield",
    "municipality": "Mühlacker",
    "country": "DE",
    "type": "small_airport",
    "lat": 48.9328,
    "lon": 8.8155
  },
  {
    "code": "DE-0303",
    "name": "Haßloch Airfield",
    "municipality": "Haßloch",
    "country": "DE",
    "type": "small_airport",
    "lat": 49.3553,
    "lon": 8.2902
  },
  {
    "code": "DE-0304",
    "name": "Hayingen Glider Field",
    "municipality": "Hayingen",
    "country": "DE",
    "type": "small_airport",
    "lat": 48.2848,
    "lon": 9.4657
  },
  {
    "code": "DE-0305",
    "name": "Heilbronn-Böckingen Glider Field",
    "municipality": "Heilbronn",
    "country": "DE",
    "type": "small_airport",
    "lat": 49.1223,
    "lon": 9.1815
  },
  {
    "code": "DE-0306",
    "name": "Hermuthausen Airfield",
    "municipality": "Ingelfingen",
    "country": "DE",
    "type": "small_airport",
    "lat": 49.3146,
    "lon": 9.7468
  },
  {
    "code": "DE-0307",
    "name": "Hilzingen Airfield",
    "municipality": "Hilzingen",
    "country": "DE",
    "type": "small_airport",
    "lat": 47.7604,
    "lon": 8.7683
  },
  {
    "code": "DE-0308",
    "name": "Hornberg Airfield",
    "municipality": "Schwäbisch Gmünd",
    "country": "DE",
    "type": "small_airport",
    "lat": 48.7458,
    "lon": 9.8615
  },
  {
    "code": "DE-0309",
    "name": "Hülben Airfield",
    "municipality": "Hülben",
    "country": "DE",
    "type": "small_airport",
    "lat": 48.5293,
    "lon": 9.398
  },
  {
    "code": "DE-0310",
    "name": "Hütten Glider Field",
    "municipality": "Rickenbach",
    "country": "DE",
    "type": "small_airport",
    "lat": 47.6333,
    "lon": 7.9412
  },
  {
    "code": "DE-0311",
    "name": "Isny Glider Field",
    "municipality": "Isny im Allgäu",
    "country": "DE",
    "type": "small_airport",
    "lat": 47.7002,
    "lon": 10.0207
  },
  {
    "code": "DE-0312",
    "name": "Kirchzarten Airfield",
    "municipality": "Kirchzarten",
    "country": "DE",
    "type": "small_airport",
    "lat": 47.9509,
    "lon": 7.9558
  },
  {
    "code": "DE-0313",
    "name": "Leibertingen Airfield",
    "municipality": "Leibertingen",
    "country": "DE",
    "type": "small_airport",
    "lat": 48.0445,
    "lon": 9.0314
  },
  {
    "code": "DE-0314",
    "name": "Leuzendorf Glider Field",
    "municipality": "Schrozberg",
    "country": "DE",
    "type": "small_airport",
    "lat": 49.3518,
    "lon": 10.0757
  },
  {
    "code": "DE-0315",
    "name": "Malmsheim Airfield",
    "municipality": "Renningen",
    "country": "DE",
    "type": "small_airport",
    "lat": 48.7847,
    "lon": 8.9175
  },
  {
    "code": "DE-0316",
    "name": "Malsch Airfield",
    "municipality": "Heidelberg",
    "country": "DE",
    "type": "small_airport",
    "lat": 49.2375,
    "lon": 8.6783
  },
  {
    "code": "DE-0317",
    "name": "Markdorf Glider Field",
    "municipality": "Markdorf",
    "country": "DE",
    "type": "small_airport",
    "lat": 47.7072,
    "lon": 9.391
  },
  {
    "code": "DE-0318",
    "name": "Möckmühl-Korb Airfield",
    "municipality": "Möckmühl",
    "country": "DE",
    "type": "small_airport",
    "lat": 49.3442,
    "lon": 9.401
  },
  {
    "code": "DE-0319",
    "name": "Schreckhof Airfield",
    "municipality": "Mosbach",
    "country": "DE",
    "type": "small_airport",
    "lat": 49.3513,
    "lon": 9.1208
  },
  {
    "code": "DE-0320",
    "name": "Mülben Airfield",
    "municipality": "",
    "country": "DE",
    "type": "small_airport",
    "lat": 49.456,
    "lon": 9.104
  },
  {
    "code": "DE-0321",
    "name": "Münsingen-Eisberg Airfield",
    "municipality": "Dottingen",
    "country": "DE",
    "type": "small_airport",
    "lat": 48.4093,
    "lon": 9.4425
  },
  {
    "code": "DE-0322",
    "name": "Musbach Airfield",
    "municipality": "Freudenstadt",
    "country": "DE",
    "type": "small_airport",
    "lat": 48.5027,
    "lon": 8.4786
  },
  {
    "code": "DE-0323",
    "name": "Neresheim Gliderfield",
    "municipality": "Neresheim",
    "country": "DE",
    "type": "small_airport",
    "lat": 48.7417,
    "lon": 10.3277
  },
  {
    "code": "DE-0324",
    "name": "Seißen Ultralight Airfield",
    "municipality": "Blaubeuren",
    "country": "DE",
    "type": "small_airport",
    "lat": 48.413484,
    "lon": 9.764933
  },
  {
    "code": "DE-0325",
    "name": "Ochsenhausen Airfield",
    "municipality": "Ochsenhausen",
    "country": "DE",
    "type": "closed",
    "lat": 48.0535,
    "lon": 9.9189
  },
  {
    "code": "DE-0326",
    "name": "Oppingen-Au Gliderfield",
    "municipality": "Nellingen",
    "country": "DE",
    "type": "small_airport",
    "lat": 48.5566,
    "lon": 9.8219
  },
  {
    "code": "DE-0327",
    "name": "Pleidelsheim Airfield",
    "municipality": "Pleidelsheim",
    "country": "DE",
    "type": "small_airport",
    "lat": 48.9564,
    "lon": 9.1914
  },
  {
    "code": "DE-0328",
    "name": "Rastatt-Baldenau Gliderfield",
    "municipality": "Rastatt",
    "country": "DE",
    "type": "small_airport",
    "lat": 48.8742,
    "lon": 8.2129
  },
  {
    "code": "DE-0329",
    "name": "Reiselfingen Airfield",
    "municipality": "Löffingen",
    "country": "DE",
    "type": "small_airport",
    "lat": 47.8517,
    "lon": 8.3715
  },
  {
    "code": "DE-0330",
    "name": "Burgebrach Ultralight Airfield",
    "municipality": "Burgebrach",
    "country": "DE",
    "type": "small_airport",
    "lat": 49.838199,
    "lon": 10.778872
  },
  {
    "code": "DE-0331",
    "name": "Forst-Sengenthal Ultralight Airfield",
    "municipality": "Sengenthal",
    "country": "DE",
    "type": "small_airport",
    "lat": 49.215229,
    "lon": 11.400697
  },
  {
    "code": "DE-0332",
    "name": "Roßfeld Airfield",
    "municipality": "Metzingen",
    "country": "DE",
    "type": "small_airport",
    "lat": 48.513231,
    "lon": 9.3331
  },
  {
    "code": "DE-0333",
    "name": "Schäfhalde Airfield",
    "municipality": "Steinheim am Albuch",
    "country": "DE",
    "type": "small_airport",
    "lat": 48.6922,
    "lon": 10.0995
  },
  {
    "code": "DE-0334",
    "name": "Sinsheim Airfield",
    "municipality": "Sinsheim",
    "country": "DE",
    "type": "small_airport",
    "lat": 49.2472,
    "lon": 8.8938
  },
  {
    "code": "DE-0335",
    "name": "Schwann-Conweiler Airfield",
    "municipality": "Pforzheim",
    "country": "DE",
    "type": "small_airport",
    "lat": 48.8382,
    "lon": 8.5432
  },
  {
    "code": "DE-0336",
    "name": "Altes Lager Airfield",
    "municipality": "Niedergörsdorf",
    "country": "DE",
    "type": "small_airport",
    "lat": 51.996217,
    "lon": 12.973008
  },
  {
    "code": "DE-0337",
    "name": "Crawinkel Airfield",
    "municipality": "Ohrdruf",
    "country": "DE",
    "type": "small_airport",
    "lat": 50.778494,
    "lon": 10.81692
  },
  {
    "code": "DE-0338",
    "name": "Günching UL",
    "municipality": "Velburg",
    "country": "DE",
    "type": "small_airport",
    "lat": 49.267765,
    "lon": 11.572641
  },
  {
    "code": "DE-0339",
    "name": "Hartenstein-Thierfeld Ultralight Airfield",
    "municipality": "Zschocken",
    "country": "DE",
    "type": "small_airport",
    "lat": 50.675798,
    "lon": 12.678946
  },
  {
    "code": "DE-0340",
    "name": "Pretzschendorf Ultralight Airfield",
    "municipality": "Klingenberg",
    "country": "DE",
    "type": "small_airport",
    "lat": 50.884038,
    "lon": 13.531042
  },
  {
    "code": "DE-0341",
    "name": "Sauldorf-Boll Ultrallightport",
    "municipality": "Sauldorf",
    "country": "DE",
    "type": "small_airport",
    "lat": 47.955796,
    "lon": 9.029828
  },
  {
    "code": "DE-0342",
    "name": "Sulz am Neckar UL",
    "municipality": "Sulz",
    "country": "DE",
    "type": "small_airport",
    "lat": 48.34487,
    "lon": 8.636649
  },
  {
    "code": "DE-0343",
    "name": "Hasselfelde Airfield",
    "municipality": "Hasselfelde",
    "country": "DE",
    "type": "small_airport",
    "lat": 51.704242,
    "lon": 10.875735
  },
  {
    "code": "DE-0344",
    "name": "Göpfersdorf Airfield",
    "municipality": "Göpfersdorf",
    "country": "DE",
    "type": "small_airport",
    "lat": 50.913871,
    "lon": 12.612927
  },
  {
    "code": "DE-0345",
    "name": "Gundelsheim ULM",
    "municipality": "Gundelsheim",
    "country": "DE",
    "type": "small_airport",
    "lat": 49.290832,
    "lon": 9.173094
  },
  {
    "code": "DE-0346",
    "name": "Hinterweiler Ultralight Airfield",
    "municipality": "Hinterweiler",
    "country": "DE",
    "type": "small_airport",
    "lat": 50.24501,
    "lon": 6.75542
  },
  {
    "code": "DE-0347",
    "name": "Möckern-Tryppehna Airfield",
    "municipality": "Möckern",
    "country": "DE",
    "type": "small_airport",
    "lat": 52.1773,
    "lon": 11.929264
  },
  {
    "code": "DE-0348",
    "name": "Roggenhagen Ultralight Airfield",
    "municipality": "Brunn",
    "country": "DE",
    "type": "small_airport",
    "lat": 53.670895,
    "lon": 13.3999
  },
  {
    "code": "DE-0349",
    "name": "Frankendorf Ultralight Airfield",
    "municipality": "Buttenheim",
    "country": "DE",
    "type": "small_airport",
    "lat": 49.836506,
    "lon": 11.089082
  },
  {
    "code": "DE-0350",
    "name": "Brandis Airbase",
    "municipality": "Brandis",
    "country": "DE",
    "type": "closed",
    "lat": 51.328383,
    "lon": 12.656439
  },
  {
    "code": "DE-0351",
    "name": "Bitterfeld Balloonport",
    "municipality": "Bitterfeld",
    "country": "DE",
    "type": "balloonport",
    "lat": 51.624671,
    "lon": 12.29462
  },
  {
    "code": "DE-0352",
    "name": "Skydive Bad Lippspringe",
    "municipality": "Lippspringe",
    "country": "DE",
    "type": "closed",
    "lat": 51.79056,
    "lon": 8.786111
  },
  {
    "code": "DE-0353",
    "name": "Beedeln Ultralight Flightpark",
    "municipality": "Seelitz",
    "country": "DE",
    "type": "small_airport",
    "lat": 51.007235,
    "lon": 12.814543
  },
  {
    "code": "DE-0355",
    "name": "Sonderlandeplatz Meißendorf-Brunsiek",
    "municipality": "Meißendorf",
    "country": "DE",
    "type": "small_airport",
    "lat": 52.7122879,
    "lon": 9.8729296
  },
  {
    "code": "DE-0356",
    "name": "Uehrde Airfield",
    "municipality": "Uehrde",
    "country": "DE",
    "type": "small_airport",
    "lat": 52.100976,
    "lon": 10.737462
  },
  {
    "code": "DE-0357",
    "name": "Brauna Airfield",
    "municipality": "Kamenz",
    "country": "DE",
    "type": "small_airport",
    "lat": 51.282857,
    "lon": 14.055521
  },
  {
    "code": "DE-0358",
    "name": "Burgheim Airfield",
    "municipality": "Burgheim",
    "country": "DE",
    "type": "small_airport",
    "lat": 48.692206,
    "lon": 11.033122
  },
  {
    "code": "DE-0359",
    "name": "Fehmarn-Neujellingsdorf Airfield",
    "municipality": "Fehmarn",
    "country": "DE",
    "type": "small_airport",
    "lat": 54.455942,
    "lon": 11.109612
  },
  {
    "code": "DE-0360",
    "name": "Katensen private UL strip",
    "municipality": "Katensen",
    "country": "DE",
    "type": "small_airport",
    "lat": 52.4411581,
    "lon": 10.1661266
  },
  {
    "code": "DE-0361",
    "name": "Mellenthin Ultralight Airfield",
    "municipality": "Mellenthin",
    "country": "DE",
    "type": "small_airport",
    "lat": 53.9175,
    "lon": 14.0325
  },
  {
    "code": "DE-0362",
    "name": "Hagen-Hof-Wahl Airfield",
    "municipality": "Hagen",
    "country": "DE",
    "type": "small_airport",
    "lat": 51.307116,
    "lon": 7.426994
  },
  {
    "code": "DE-0363",
    "name": "UL-Gelände Bürstadt",
    "municipality": "Bürstadt",
    "country": "DE",
    "type": "small_airport",
    "lat": 49.6558333,
    "lon": 8.4747222
  },
  {
    "code": "DE-0364",
    "name": "Crussow Airfield",
    "municipality": "Angermünde",
    "country": "DE",
    "type": "closed",
    "lat": 53.013056,
    "lon": 14.071111
  },
  {
    "code": "DE-0365",
    "name": "Teldau-Amholz Airfield",
    "municipality": "Teldau",
    "country": "DE",
    "type": "small_airport",
    "lat": 53.328233,
    "lon": 10.832841
  },
  {
    "code": "DE-0366",
    "name": "Kleinkoschen Ultralight Airfield",
    "municipality": "Senftenberg",
    "country": "DE",
    "type": "small_airport",
    "lat": 51.511841,
    "lon": 14.082798
  },
  {
    "code": "DE-0367",
    "name": "Iserlohn-Sümmern Glider Field",
    "municipality": "Iserlohn",
    "country": "DE",
    "type": "small_airport",
    "lat": 51.436389,
    "lon": 7.699722
  },
  {
    "code": "DE-0368",
    "name": "Mohorn Airfield",
    "municipality": "Wilsdruff",
    "country": "DE",
    "type": "small_airport",
    "lat": 50.997963,
    "lon": 13.446165
  },
  {
    "code": "DE-0369",
    "name": "Wertheim Airfield",
    "municipality": "Wertheim",
    "country": "DE",
    "type": "small_airport",
    "lat": 49.72579,
    "lon": 9.506707
  },
  {
    "code": "DE-0370",
    "name": "Schwarzenbach-Sötern Ultralight Airfield",
    "municipality": "Nonnweiler",
    "country": "DE",
    "type": "small_airport",
    "lat": 49.591944,
    "lon": 7.031389
  },
  {
    "code": "DE-0371",
    "name": "Offenbüttel Ultralight Airfield",
    "municipality": "Offenbüttel",
    "country": "DE",
    "type": "small_airport",
    "lat": 54.175833,
    "lon": 9.378056
  },
  {
    "code": "DE-0372",
    "name": "Altenbeuthen UL",
    "municipality": "Altenbeuthen",
    "country": "DE",
    "type": "small_airport",
    "lat": 50.592206,
    "lon": 11.588424
  },
  {
    "code": "DE-0373",
    "name": "Günzburg Hospital Helipad",
    "municipality": "Günzburg",
    "country": "DE",
    "type": "heliport",
    "lat": 48.4581,
    "lon": 10.291601
  },
  {
    "code": "DE-0374",
    "name": "Legoland Helipad",
    "municipality": "Günzburg",
    "country": "DE",
    "type": "heliport",
    "lat": 48.4259,
    "lon": 10.298503
  },
  {
    "code": "DE-0375",
    "name": "Wilhelmsburg Barracks Heliport",
    "municipality": "Ulm",
    "country": "DE",
    "type": "closed",
    "lat": 48.414099,
    "lon": 9.981372
  },
  {
    "code": "DE-0376",
    "name": "Mittelfischach Ultralight Airfield",
    "municipality": "Obersontheim",
    "country": "DE",
    "type": "small_airport",
    "lat": 49.034134,
    "lon": 9.871645
  },
  {
    "code": "DE-0377",
    "name": "Waltrop Ultralight Airfield",
    "municipality": "Waltrop",
    "country": "DE",
    "type": "small_airport",
    "lat": 51.640381,
    "lon": 7.426479
  },
  {
    "code": "DE-0378",
    "name": "Schlierstadt-Seligenberg Airfield",
    "municipality": "Osterburken",
    "country": "DE",
    "type": "small_airport",
    "lat": 49.443554,
    "lon": 9.361944
  },
  {
    "code": "DE-0379",
    "name": "Litzlohe UL",
    "municipality": "Pilsach auf der Heid",
    "country": "DE",
    "type": "small_airport",
    "lat": 49.351883,
    "lon": 11.488491
  },
  {
    "code": "DE-0380",
    "name": "Eimbeckhausen Airfield",
    "municipality": "Bad Münder",
    "country": "DE",
    "type": "small_airport",
    "lat": 52.225832,
    "lon": 9.425161
  },
  {
    "code": "DE-0381",
    "name": "Straßham Ultralight Airfield",
    "municipality": "Forstern",
    "country": "DE",
    "type": "small_airport",
    "lat": 48.179722,
    "lon": 11.927222
  },
  {
    "code": "DE-0382",
    "name": "Unterschwaningen Ultralight Airfield",
    "municipality": "Unterschwaningen",
    "country": "DE",
    "type": "small_airport",
    "lat": 49.086013,
    "lon": 10.634766
  },
  {
    "code": "DE-0383",
    "name": "Bredstedt Airfield",
    "municipality": "Bredstedt",
    "country": "DE",
    "type": "small_airport",
    "lat": 54.633425,
    "lon": 8.985745
  },
  {
    "code": "DE-0384",
    "name": "Kemnitz Heliport",
    "municipality": "Kemnitz",
    "country": "DE",
    "type": "heliport",
    "lat": 54.0824235,
    "lon": 13.5361492
  },
  {
    "code": "DE-0385",
    "name": "Fresh Breeze UL",
    "municipality": "Bissendorf",
    "country": "DE",
    "type": "small_airport",
    "lat": 52.518069,
    "lon": 9.732115
  },
  {
    "code": "DE-0386",
    "name": "Everswinkel Ultralight Airfield",
    "municipality": "Everswinkel",
    "country": "DE",
    "type": "small_airport",
    "lat": 51.884444,
    "lon": 7.838056
  },
  {
    "code": "DE-0387",
    "name": "Geilsheim UL",
    "municipality": "Wassertrüdingen",
    "country": "DE",
    "type": "small_airport",
    "lat": 49.024268,
    "lon": 10.660071
  },
  {
    "code": "DE-0388",
    "name": "Plötzin Airfield",
    "municipality": "Plötzin",
    "country": "DE",
    "type": "small_airport",
    "lat": 52.355651,
    "lon": 12.824854
  },
  {
    "code": "DE-0389",
    "name": "Metelen Ultralight Airfield",
    "municipality": "Metelen",
    "country": "DE",
    "type": "small_airport",
    "lat": 52.15949,
    "lon": 7.241294
  },
  {
    "code": "DE-0390",
    "name": "Dorstadt Ultralight Airfield",
    "municipality": "Dorstadt",
    "country": "DE",
    "type": "small_airport",
    "lat": 52.099876,
    "lon": 10.550802
  },
  {
    "code": "DE-0391",
    "name": "Malsch-Ettlingen Ultralight Flightpark",
    "municipality": "Malsch",
    "country": "DE",
    "type": "small_airport",
    "lat": 48.901667,
    "lon": 8.328333
  },
  {
    "code": "DE-0392",
    "name": "Weidberg-Kaltenwestheim Ultralight Airfield",
    "municipality": "Kaltennordheim",
    "country": "DE",
    "type": "small_airport",
    "lat": 50.608674,
    "lon": 10.087069
  },
  {
    "code": "DE-0393",
    "name": "Dörzbach-Hohebach Ultralight Flightpark",
    "municipality": "Dörzbach",
    "country": "DE",
    "type": "small_airport",
    "lat": 49.350308,
    "lon": 9.715267
  },
  {
    "code": "DE-0394",
    "name": "Morbach Ultralight Airfield",
    "municipality": "Großerlach",
    "country": "DE",
    "type": "small_airport",
    "lat": 49.033929,
    "lon": 9.589713
  },
  {
    "code": "DE-0395",
    "name": "Sonderlandeplatz Kremmen-Hohenbruch UL",
    "municipality": "Kremmen",
    "country": "DE",
    "type": "small_airport",
    "lat": 52.797548,
    "lon": 13.102406
  },
  {
    "code": "DE-0396",
    "name": "Kunrau-Jahrstedt Ultralight Airfield",
    "municipality": "Klötze",
    "country": "DE",
    "type": "small_airport",
    "lat": 52.567273,
    "lon": 10.994203
  },
  {
    "code": "DE-0397",
    "name": "Deisterflieger UL",
    "municipality": "",
    "country": "DE",
    "type": "small_airport",
    "lat": 52.2941978,
    "lon": 9.3773282
  },
  {
    "code": "DE-0398",
    "name": "Neuenstadt am Kocher Ultralight Airfield",
    "municipality": "Neuenstadt am Kocher",
    "country": "DE",
    "type": "small_airport",
    "lat": 49.242661,
    "lon": 9.316724
  },
  {
    "code": "DE-0399",
    "name": "Hoym Airfield",
    "municipality": "Seeland",
    "country": "DE",
    "type": "small_airport",
    "lat": 51.777931,
    "lon": 11.285309
  },
  {
    "code": "DE-0400",
    "name": "Niederwillingen Airfield",
    "municipality": "Stadtilm",
    "country": "DE",
    "type": "small_airport",
    "lat": 50.780019,
    "lon": 11.050058
  },
  {
    "code": "DE-0401",
    "name": "Oberrot-Glashofen UL",
    "municipality": "Oberrot",
    "country": "DE",
    "type": "small_airport",
    "lat": 49.01005,
    "lon": 9.638593
  },
  {
    "code": "DE-0402",
    "name": "Donstorf UL",
    "municipality": "",
    "country": "DE",
    "type": "small_airport",
    "lat": 52.655,
    "lon": 8.556944
  },
  {
    "code": "DE-0403",
    "name": "Ohlsbach Ultralight Airfield",
    "municipality": "Offenburg",
    "country": "DE",
    "type": "small_airport",
    "lat": 48.433145,
    "lon": 7.972054
  },
  {
    "code": "DE-0404",
    "name": "Walxheim-Unterschneidheim UL",
    "municipality": "Unterschneidheim",
    "country": "DE",
    "type": "small_airport",
    "lat": 48.953631,
    "lon": 10.323716
  },
  {
    "code": "DE-0405",
    "name": "Naunheim / Maifeld Ultralight Airfield",
    "municipality": "Naunheim",
    "country": "DE",
    "type": "small_airport",
    "lat": 50.258215,
    "lon": 7.332162
  },
  {
    "code": "DE-0406",
    "name": "Drachenflugplatz Welver Ultralight Airfield",
    "municipality": "Illingen-Welver",
    "country": "DE",
    "type": "closed",
    "lat": 51.617628,
    "lon": 7.936072
  },
  {
    "code": "DE-0407",
    "name": "Gemen-Kirchspiel Ultralight Airfield",
    "municipality": "Borken",
    "country": "DE",
    "type": "small_airport",
    "lat": 51.878889,
    "lon": 6.855278
  },
  {
    "code": "DE-0408",
    "name": "Schwaigern/Stetten UL",
    "municipality": "Schwaigern",
    "country": "DE",
    "type": "small_airport",
    "lat": 49.141667,
    "lon": 8.9875
  },
  {
    "code": "DE-0409",
    "name": "Gersdorf Ultralight Airfield",
    "municipality": "Nennslingen",
    "country": "DE",
    "type": "small_airport",
    "lat": 49.03187,
    "lon": 11.141181
  },
  {
    "code": "DE-0410",
    "name": "Rupin Hospital Helipad",
    "municipality": "Ruppin",
    "country": "DE",
    "type": "heliport",
    "lat": 52.9039727,
    "lon": 12.7963431
  },
  {
    "code": "DE-0411",
    "name": "Hohenstein UL",
    "municipality": "Hohenstein",
    "country": "DE",
    "type": "small_airport",
    "lat": 51.533636,
    "lon": 10.57889
  },
  {
    "code": "DE-0412",
    "name": "Gössenheim Ultralight Airfield",
    "municipality": "Gössenheim",
    "country": "DE",
    "type": "small_airport",
    "lat": 50.028245,
    "lon": 9.772232
  },
  {
    "code": "DE-0413",
    "name": "Obersöllbach Ultralight Airfield",
    "municipality": "Neuenstein",
    "country": "DE",
    "type": "small_airport",
    "lat": 49.183183,
    "lon": 9.559103
  },
  {
    "code": "DE-0414",
    "name": "Brodau Cropduster Strip",
    "municipality": "Delitsch",
    "country": "DE",
    "type": "small_airport",
    "lat": 51.4987,
    "lon": 12.32983
  },
  {
    "code": "DE-0415",
    "name": "Laussig Agricultural Airstrip",
    "municipality": "Laussig",
    "country": "DE",
    "type": "small_airport",
    "lat": 51.535632,
    "lon": 12.642359
  },
  {
    "code": "DE-0416",
    "name": "Maurice Rose Army Air Field",
    "municipality": "Frankfurt am Main",
    "country": "DE",
    "type": "closed",
    "lat": 50.177008,
    "lon": 8.658793
  },
  {
    "code": "DE-0417",
    "name": "Rebstock Airfield",
    "municipality": "Frankfurt am Main",
    "country": "DE",
    "type": "closed",
    "lat": 50.111029,
    "lon": 8.613238
  },
  {
    "code": "DE-0418",
    "name": "DRF Air Rescue München Heliport",
    "municipality": "München",
    "country": "DE",
    "type": "heliport",
    "lat": 48.110558,
    "lon": 11.465242
  },
  {
    "code": "DE-0419",
    "name": "Heidelberg Army Helicopter Base",
    "municipality": "Heidelberg",
    "country": "DE",
    "type": "closed",
    "lat": 49.392397,
    "lon": 8.651935
  },
  {
    "code": "DE-0420",
    "name": "Greifswald Hospital Heliport",
    "municipality": "",
    "country": "DE",
    "type": "heliport",
    "lat": 54.089077,
    "lon": 13.408176
  },
  {
    "code": "DE-0421",
    "name": "Neustrelitz Heliport",
    "municipality": "",
    "country": "DE",
    "type": "heliport",
    "lat": 53.3821208,
    "lon": 13.0521218
  },
  {
    "code": "DE-0422",
    "name": "Aachen Hospital Heliport",
    "municipality": "Aachen",
    "country": "DE",
    "type": "heliport",
    "lat": 50.775674,
    "lon": 6.044372
  },
  {
    "code": "DE-0423",
    "name": "Bad Saarow Hospital Heliport",
    "municipality": "",
    "country": "DE",
    "type": "heliport",
    "lat": 52.284419,
    "lon": 14.06036
  },
  {
    "code": "DE-0424",
    "name": "Meyenburg Cropduster Airstrip",
    "municipality": "",
    "country": "DE",
    "type": "closed",
    "lat": 53.3101318,
    "lon": 12.2514551
  },
  {
    "code": "DE-0425",
    "name": "Machern Cropduster Strip",
    "municipality": "Machern",
    "country": "DE",
    "type": "small_airport",
    "lat": 51.35862,
    "lon": 12.611778
  },
  {
    "code": "DE-0426",
    "name": "Freyenstein UL",
    "municipality": "",
    "country": "DE",
    "type": "small_airport",
    "lat": 53.2752777,
    "lon": 12.3661111
  },
  {
    "code": "DE-0427",
    "name": "Zwochau Cropduster Strip",
    "municipality": "Wiedemar",
    "country": "DE",
    "type": "small_airport",
    "lat": 51.46339,
    "lon": 12.23996
  },
  {
    "code": "DE-0428",
    "name": "Böblingen/Sindelfingen Airfield",
    "municipality": "Böblingen",
    "country": "DE",
    "type": "closed",
    "lat": 48.689544,
    "lon": 8.996193
  },
  {
    "code": "DE-0429",
    "name": "Böblingen Hospital Heliport",
    "municipality": "Böblingen",
    "country": "DE",
    "type": "heliport",
    "lat": 48.690553,
    "lon": 9.03221
  },
  {
    "code": "DE-0430",
    "name": "Sindelfingen City Hospital Helistop",
    "municipality": "Sindelfingen",
    "country": "DE",
    "type": "heliport",
    "lat": 48.71495,
    "lon": 9.02438
  },
  {
    "code": "DE-0431",
    "name": "Oldenburg Police Heliport",
    "municipality": "",
    "country": "DE",
    "type": "heliport",
    "lat": 53.2162096,
    "lon": 8.2177713
  },
  {
    "code": "DE-0432",
    "name": "Gerbstedt Airstrip",
    "municipality": "Gerbstedt",
    "country": "DE",
    "type": "small_airport",
    "lat": 51.636832,
    "lon": 11.614951
  },
  {
    "code": "DE-0433",
    "name": "Parchim Sport Airfield",
    "municipality": "Parchim",
    "country": "DE",
    "type": "small_airport",
    "lat": 53.41861,
    "lon": 11.80167
  },
  {
    "code": "DE-0434",
    "name": "Christoph 12 Luftrettungszentrum",
    "municipality": "",
    "country": "DE",
    "type": "heliport",
    "lat": 54.034939,
    "lon": 10.562518
  },
  {
    "code": "DE-0435",
    "name": "Kolitzheim-Herleshof Airfield",
    "municipality": "Kolitzheim",
    "country": "DE",
    "type": "small_airport",
    "lat": 49.920062,
    "lon": 10.258141
  },
  {
    "code": "DE-0436",
    "name": "Heimatshofen Private Airstrip UL",
    "municipality": "",
    "country": "DE",
    "type": "small_airport",
    "lat": 47.95773,
    "lon": 11.82082
  },
  {
    "code": "DE-0437",
    "name": "Luftrettungszentrum Bielefeld",
    "municipality": "Bielefeld",
    "country": "DE",
    "type": "heliport",
    "lat": 51.982693,
    "lon": 8.528706
  },
  {
    "code": "DE-0438",
    "name": "Basepohl Airfield",
    "municipality": "Stavenhagen",
    "country": "DE",
    "type": "closed",
    "lat": 53.747388,
    "lon": 12.950649
  },
  {
    "code": "DE-0439",
    "name": "Einstazhafen Kaltenkirchen Airfield",
    "municipality": "Kaltenkirchen",
    "country": "DE",
    "type": "closed",
    "lat": 53.825327,
    "lon": 9.904432
  },
  {
    "code": "DE-0440",
    "name": "Berlin-Schönefeld Airport",
    "municipality": "Berlin",
    "country": "DE",
    "type": "closed",
    "lat": 52.380001,
    "lon": 13.5225
  },
  {
    "code": "DE-0441",
    "name": "Borkheide Airfield",
    "municipality": "Borkheide",
    "country": "DE",
    "type": "closed",
    "lat": 52.23364,
    "lon": 12.84742
  },
  {
    "code": "DE-0442",
    "name": "Sankt Elisabeth Hospital Iserlohn Heliport",
    "municipality": "Iserlohn",
    "country": "DE",
    "type": "heliport",
    "lat": 51.380347,
    "lon": 7.690685
  },
  {
    "code": "DE-0443",
    "name": "Marbach-Rielingshausen Airfield",
    "municipality": "Marbach am Neckar",
    "country": "DE",
    "type": "small_airport",
    "lat": 48.967714,
    "lon": 9.322093
  },
  {
    "code": "DE-0444",
    "name": "Borkum Heliport",
    "municipality": "Borkum",
    "country": "DE",
    "type": "heliport",
    "lat": 53.566654,
    "lon": 6.755764
  },
  {
    "code": "DE-0445",
    "name": "Felling Airfield",
    "municipality": "Edling",
    "country": "DE",
    "type": "small_airport",
    "lat": 48.07159,
    "lon": 12.13531
  },
  {
    "code": "DE-0446",
    "name": "Rhein-Maas Hospital Heliport",
    "municipality": "Würselen",
    "country": "DE",
    "type": "heliport",
    "lat": 50.814876,
    "lon": 6.143212
  },
  {
    "code": "DE-0447",
    "name": "Bruchsal dropzone",
    "municipality": "",
    "country": "DE",
    "type": "small_airport",
    "lat": 49.0975,
    "lon": 8.59495
  },
  {
    "code": "DE-0448",
    "name": "Köln-Sülz Balloonport",
    "municipality": "Köln (Cologne)",
    "country": "DE",
    "type": "balloonport",
    "lat": 50.91305,
    "lon": 6.89627
  },
  {
    "code": "DE-0449",
    "name": "Berlin-Staaken Airport",
    "municipality": "Dallgow-Döberitz",
    "country": "DE",
    "type": "closed",
    "lat": 52.53446,
    "lon": 13.11579
  },
  {
    "code": "DE-0450",
    "name": "Duisburg Air Rescue Heliport (Christoph 9)",
    "municipality": "Duisburg",
    "country": "DE",
    "type": "heliport",
    "lat": 51.380215,
    "lon": 6.787303
  },
  {
    "code": "DE-0451",
    "name": "Düdinghausen Auxiliary Helicopter Base",
    "municipality": "Steyerberg",
    "country": "DE",
    "type": "heliport",
    "lat": 52.58029,
    "lon": 8.93266
  },
  {
    "code": "DE-0452",
    "name": "Fallschirmsportclub Oberhausen",
    "municipality": "Oberhausen",
    "country": "DE",
    "type": "closed",
    "lat": 49.5491,
    "lon": 9.95173
  },
  {
    "code": "DE-0453",
    "name": "Starnberg-Landstetten Airfield",
    "municipality": "Starnberg",
    "country": "DE",
    "type": "small_airport",
    "lat": 47.981058,
    "lon": 11.243291
  },